Location,Region Name,Zone Name,lat,lng,Number of staff,Number of Doctors,Percentage of underweight Children,Proportion of children 6-59 months with severe acute malnutrition,Proportion of HHs using latrine,Malaria rate,Proportion of  households covered with mosquito bed nets(LLIN),Proportion of functional 1 to 5 networks,Health budget utilization,Essential drugs availability,Integrated Supportive supervision,Reporting completeness
a/chuko,snnpr,sidama,6.557722239,38.3010891888,407.0,0.0,2965.01032639,3636.60068679,678055.400879,5.90407802582,1360.76556396,21781.3607788,188.540649414,1039.5,6165.38220882,7480.57632446
a/ketema,dire dawa,dire dawa,9.0336,38.72361,72.0,0.0,2222.88248846,891.869322538,3409.66650391,0.3400432899,200.0,3358.33478546,0.0,1108.0,1675.0,8864.69692993
a/tsembila,tigray,tigray,13.9574872516,37.9943973894,105.0,0.0,3075.19524193,2028.77013206,66216.2626343,27.5505133667,803.68927002,53881.6986084,195.789993286,2102.0,15355.0001221,15960.2382812
a/wondo,snnpr,sidama,6.60291372264,38.435211766,342.0,0.0,2696.27648735,20838.4683757,18208.829895,1.57981836319,657.034820557,18052.9414673,98.9386291504,1039.5,6774.51837158,4573.50309753
abaala,afar,afar,13.3393923143,39.9596725596,106.0,0.0,0.0,141.666664124,14350.9801255,0.0110893988609,749.162506103,100.0,200.0,226.0,4466.66665649,2180.0
abadir,harreri,harreri,9.301828,42.142272,12.0,0.0,0.0,0.0,401.29486084,0.32,100.0,365.697955728,200.0,0.0,900.0,1850.0
abaya,oromiya,borena,6.38936549806,38.0329066339,106.0,0.0,9656.93347585,4367.32514954,11165.0268555,25.1201614227,749.162506103,24310.598938,200.0,1562.0,5526.06375122,7107.33829498
abayi choman,oromiya,horo guduru welega,9.71799438216,37.33720737,320.0,0.0,1771.36103514,391.794342726,56381.6816406,10.7494998779,200.0,22348.1438599,200.0,1320.0,5600.0,11233.5796814
abe dongoroo,oromiya,horo guduru welega,9.59390116722,36.8614375533,88.0,0.0,2523.17394626,656.909807205,10417.5238037,26.9144275513,749.162506103,14547.4820557,30.1754379272,1866.0,4233.33325195,9660.0
abergele,amhara,waghimra,13.0749219934,38.889111524,106.0,0.0,9366.60202789,3003.1905036,19653.9306641,14.5480254974,749.162506103,11814.0035548,200.0,1285.0,5133.33328247,11108.9246368
abeshge,snnpr,gurage,8.30257608261,37.6064255466,224.0,0.0,308.471175849,14.3712533927,6180.25640869,3.34398692322,595.001296997,14849.9921875,142.493202209,1039.5,3922.25515747,2388.46154022
abi adi town,tigray,tigray,13.623028,39.002033,54.0,0.0,18.2890356109,3.82661024109,14350.9801255,0.356263170719,749.162506103,18915.9616089,53.1730995178,282.0,599.999996185,100.0
abobo,gambella,gambella,7.8551821067,34.5375601429,106.0,0.0,574.866684914,1220.34520149,16257.677002,15.421352562,749.162506103,2226.44644928,200.0,680.0,766.666664124,6650.0
abuna,oromiya,west shoa,9.67019259439,37.9868350945,56.0,0.0,5532.41512775,1957.72952986,7601.84667969,14.9264218597,1162.80187988,24092.3772354,84.6262359619,1176.0,3575.0,2731.42857361
adaar,afar,afar,11.315658431,40.4437033351,61.0,0.0,3682.49277496,1278.34637165,1067.97383118,7.25626057434,159.802383423,1697.90571022,200.0,717.0,2219.99998474,8740.0
adaba,oromiya,west arsi,6.99045205701,39.5274152359,168.0,0.0,6930.93840027,4157.85978699,258118.34375,0.1,749.162506103,35544.1988525,641.997009277,3096.0,15291.6668701,20495.166008
adabarga,oromiya,west shoa,9.41698128152,38.4371555787,33.0,0.0,9847.54232788,2901.65133858,84241.0056152,9.54880635071,1100.0,45854.1912842,200.0,1248.0,12472.0614014,11325.6210632
adadle,somali,somali,5.81613878657,43.2010920958,80.0,0.0,2430.36709595,295.674250126,3397.13592529,14.0103423004,749.162506103,21100.0,200.0,289.0,100.0,1686.14718628
adama rural,oromiya,east shewa,8.46535149682,39.2677265049,108.0,0.0,6887.1457901,2914.43176174,756745.109131,23.5376091614,1291.84338379,49505.1895752,109.420257568,2662.0,9680.21646118,17439.8849182
adami tullu j/k,oromiya,east shewa,7.83137241694,38.6375148228,160.0,0.0,5682.90092754,3148.90705109,38619.6501465,25.9972833557,3555.7355957,83489.6103516,371.843963623,1920.0,21063.6113281,15191.7865601
addis ketema,addis ababa,addis ababa,9.03469821285,38.7265581142,1102.0,0.0,552.028859138,733.928243726,14350.9801255,4.71601878166,749.162506103,18915.9616089,504.145202637,3089.0,2499.99998474,17633.4018974
adea,oromiya,east shewa,8.7486383353,39.0303456364,31.0,0.0,1539.64311361,922.453184605,85294.3291016,4.74347502613,1500.0,38330.2089844,200.0,1591.0,10378.3333435,14768.5630188
adiarkay,amhara,north gondar,13.3845775123,37.9787691708,47.0,0.0,4862.13853765,1552.61678457,61084.0817871,24.9414423218,300.0,5433.68647385,200.0,1072.0,8666.66668701,6931.42857361
adigrat,tigray,tigray,14.280269,39.462612,101.0,0.0,139.725236386,13.7406932116,14350.9801255,1.42230770493,749.162506103,18915.9616089,200.0,584.0,1000.0,2400.0
adiyo,snnpr,kaffa,0.0,0.0,92.0,0.0,187.218943812,12.0107389614,2559.56734467,1.54785089588,202.248031616,1866.88744354,57.8114128113,1039.5,521.738613129,2336.89457703
adola woyu,oromiya,guji,5.97611283307,38.9617645271,133.0,0.0,10588.0920029,6257.80824018,12836.7835693,6.66397766113,825.880737305,10095.5778828,409.48538208,1316.0,1137.49998474,14294.574585
adwa rural,tigray,tigray,14.1748554378,38.9246294764,147.0,0.0,3139.26130295,1071.81827879,402804.972778,26.7458527832,349.621856689,41125.105957,309.031524658,1764.0,13914.166748,14200.0
adwa town,tigray,tigray,14.16587,38.890336,81.0,0.0,310.382990003,264.55312404,14350.9801255,1.7088588171,749.162506103,18915.9616089,0.127533614635,698.0,266.666664124,2872.22221375
afambo,afar,afar,11.2389927351,41.6467541187,101.0,0.0,2444.97858429,1387.41234207,3676.78268433,13.1767270508,0.0,8441.74124146,100.0,598.0,5700.0,6500.0
afdem,somali,somali,10.204290661,41.2282842183,117.0,0.0,4853.13363647,820.862309456,19600.2382812,4.05375201416,160.981292725,6189.32525635,0.0,220.0,1133.33333969,1540.27775574
afdera,afar,afar,13.3871689674,40.9296375397,9.0,0.0,1628.3245039,1607.0039916,14350.9801255,3.10854346752,18.75,297.857139587,10.0,529.0,175.0,2670.0
agalometi,benishangul-gumuz,benishangul-gumuz,9.79661856622,35.646203478,106.0,0.0,1346.43630266,256.042213202,50830.5554199,14.594879303,749.162506103,5474.07242203,200.0,274.0,2333.33337402,1183.33333588
agarfa,oromiya,bale,7.31698284181,39.7742706352,111.0,0.0,6861.87889862,2460.30159187,147647.786865,2.15545144653,243.332901001,14829.9099426,485.679412842,1537.0,9825.00007629,18658.2726593
agaro,oromiya,jimma,7.859045,36.582327,129.0,0.0,201.366845846,84.3205680102,18078.8556213,0.987029743671,749.162506103,4182.74613953,200.0,504.0,4200.00006104,11629.6639252
ahferom,tigray,tigray,14.3856171604,39.1239153518,347.0,0.0,4461.59850693,2336.99163914,53549.3151855,36.3467009888,932.010009766,39714.0180664,374.513458252,2101.0,14408.333252,16124.72229
akaki,addis ababa,addis ababa,8.89728556567,38.8037698907,444.0,0.0,489.288124561,419.532307327,14350.9801255,5.93091644287,749.162506103,18915.9616089,177.091156006,1703.0,833.333328247,14733.2048035
akaki,oromiya,finfine special,8.77096300631,38.8459971771,71.0,0.0,4492.11433029,794.4385553,250099.091797,14.7010094604,1800.0,47192.9991455,300.0,728.0,9956.82336426,8408.62615204
akobo,gambella,gambella,7.96024199069,33.2715650268,106.0,0.0,186.666666031,3.6714977026,14350.9801255,0.406612640381,749.162506103,84.0,200.0,0.0,4466.66665649,7625.0
alamata town,tigray,tigray,12.3859823236,39.5127690167,90.0,0.0,92.6434395313,18.6718949527,14350.9801255,0.183168468475,749.162506103,18915.9616089,99.4079742432,278.0,350.0,1299.99999619
albuko,amhara,south wolo,10.8146869361,39.6132980123,126.0,0.0,3073.31745148,863.086075306,12592.982666,0.577316009521,1600.0,23080.4881592,200.0,1091.0,9566.66665649,9500.0
ale,oromiya,ilu ababor,8.1416555892,35.5189568394,106.0,0.0,345.15870738,70.9805244952,7523.29980469,2.89450280333,991.499389648,29728.6688232,200.0,744.0,153.508773804,9407.14285278
alefa,amhara,north gondar,11.9326116475,36.7330821851,169.0,0.0,3112.4422226,288.567885399,20525.1623077,40.3812229004,2776.20141602,27103.20401,399.240509033,1573.0,19372.6190186,10995.3320923
aleltu,oromiya,north shoa,9.24280609045,39.1453962746,189.0,0.0,3712.86031342,1059.35886979,48584.9855957,0.9502380867,100.0,25249.2409058,170.834182739,768.0,9821.79473877,7719.04760742
alge,oromiya,ilu ababor,8.58169638933,35.7677007302,127.0,0.0,2635.46085978,553.921127558,7225.56048584,5.27488895416,1302.50585938,31283.9725342,692.24420166,1610.0,3926.12180328,12563.6995239
alicho,snnpr,silte,7.97548674705,38.1710164985,135.0,0.0,28.6719972193,160.269855626,4639.26377106,0.246743445396,749.162506103,2612.50691986,256.191574097,1039.5,432.027915955,2364.91402435
alle,snnpr,segen,5.5339185478,37.1608717929,106.0,0.0,111.947916448,125.283077225,14350.9801255,0.710527337074,749.162506103,3026.07110596,200.0,1039.5,4466.66665649,2385.59523773
amaro,snnpr,segen,5.79144594145,37.8194202904,106.0,0.0,2351.88662863,609.830403388,14350.9801255,17.2892503662,749.162506103,11678.451767,200.0,1039.5,457.142856598,11913.9285889
amaya,oromiya,south wollo,8.55567614787,37.7028530274,113.0,0.0,2699.05707884,867.74272418,20331.2403564,11.7213797455,2325.6237793,42464.1229248,200.004699707,1999.0,14314.166748,18200.9526367
ambasel,amhara,south wolo,11.5002829848,39.4913283755,151.0,0.0,5257.84523773,1548.59000087,18356.1672363,1.60761136913,258.989624023,42093.6760254,409.504211426,2093.0,21950.0002441,16190.769104
ambo town,oromiya,west shoa,8.978297,37.856633,198.0,0.0,109.79879263,26.5709176213,564.285705566,0.78574667573,749.162506103,222.775922775,187.755203247,565.0,300.0,5142.00146484
ambo,oromiya,west shoa,9.06802355082,37.8345126539,55.0,0.0,3403.88198376,2487.8429451,10716.4784546,20.739430542,749.162506103,15261.1478577,99.5958557129,1209.0,1241.66665649,4175.0
amibera,afar,afar,9.52594789609,40.4039214481,164.0,1.0,7448.63231659,4567.75650215,3650.35528564,18.8782718506,26.1682243347,5960.12055969,400.0,999.0,2333.33331299,7296.59555054
amigna,oromiya,arsi,7.89650225806,40.16717513,106.0,0.0,10556.1811371,1568.83983946,16154.8101807,6.30869818878,749.162506103,13028.8593597,200.0,478.0,11358.3332825,5645.23809814
amir nue,harreri,harreri,0.0,0.0,328.0,0.0,335.60948348,311.25151825,200.0,1.197422755,100.0,398.676116943,100.0,615.0,900.0,3533.33332825
amuru,oromiya,horo guduru welega,10.1329461857,37.0118435913,29.0,0.0,2080.61477983,962.543705046,34922.5677795,25.6468518677,749.162506103,19172.2159424,100.0,1120.0,2846.6665802,6200.0
ana sora,oromiya,guji,6.1760250135,38.7653700911,102.0,0.0,4983.07387543,3324.31020355,9122.81192017,2.36086479092,749.162506103,12430.1691055,40.926738739,1131.0,12816.666748,11168.7976685
anchar,oromiya,west hararge,8.73916119306,40.2071309217,46.0,0.0,8812.85018921,2574.10561943,101265.527588,5.42306134224,1400.0,36805.1273804,299.361694336,1136.0,13367.9019775,8237.5
andracha,snnpr,sheka,7.55182056073,35.3430524028,48.0,0.0,439.09983021,995.55375874,6170.98082733,0.751010093689,469.962799072,17012.9430084,400.0,1039.5,2609.46075439,4878.57141113
aneded,amhara,east gojam,10.1790953491,37.8736154889,152.0,0.0,747.267708197,162.965389013,12898.4786377,17.8263637695,1795.84484863,22679.1948242,400.0,1364.0,14533.333252,14421.0714722
anfillo,oromiya,kellem,8.58883714699,34.522503979,109.0,0.0,3108.23521423,1603.81341743,19978.3513184,6.78712911224,0.0,38210.067627,400.0,1115.0,12933.3330078,12248.7069092
angacha,snnpr,kembata tembaro,7.35581500871,37.8584450308,162.0,1.0,338.23573637,3078.67330945,5619.12335205,3.37507978249,35.8210754395,12839.2212219,416.888473511,1039.5,3676.77000427,4800.0
ankesha,amhara,awi,10.7583109272,36.7852820703,106.0,0.0,1057.50922036,208.052328765,23778.590332,28.1201082764,749.162506103,33182.6416016,200.0,2380.0,2220.0,14072.674408
ankober,amhara,north shoa,9.55808075536,39.7771285557,60.0,0.0,2842.61624908,223.854532242,7840.72485352,1.08415178823,971.425048828,14926.8275126,300.0,1401.0,10600.0000305,11830.0
anlemo,snnpr,hadiya,7.62149365057,37.9792430849,236.0,0.0,316.830628157,673.081403524,5118.28106689,3.05797088623,1256.92987061,11298.4772949,100.0,1039.5,716.076778412,2381.48148346
antsokiagemza,amhara,north shoa,10.5977528958,39.8019664563,133.0,0.0,1045.72195387,800.407385409,25374.4960327,10.4618570099,1197.74438477,30544.5516968,487.420288086,1360.0,10849.3860474,11583.333313
arada,addis ababa,addis ababa,9.03568131134,38.7546835192,1123.0,1.0,792.589698792,907.384854138,14350.9801255,3.97388712835,749.162506103,18915.9616089,651.701843262,2029.0,2000.0,12929.6052856
arba minch tawon,snnpr,gamo gofa,6.032972,37.559186,370.0,0.0,0.496688753366,0.0,14350.9801255,0.64861788559,749.162506103,18915.9616089,141.996570587,1039.5,200.0,913.580246925
arba minch zuria,snnpr,gamo gofa,5.96150451491,37.546581154,218.0,0.0,81.6468141675,34.1023099944,532.934608459,0.531041442871,33.7328643799,1349.26831055,227.395896912,1039.5,352.011219025,2312.67364502
aregoba,afar,afar,9.50493570742,39.8907215186,106.0,0.0,16228.5313416,8596.04071808,4553.44946289,18.7589021454,749.162506103,1000.0,200.0,285.0,4816.66662598,2010.45454407
aregoba,amhara,south wolo,10.9312345168,39.9818189202,86.0,0.0,1806.09633982,570.11877346,3420.40374756,2.62352529526,74.7002410889,5671.64336395,184.686065674,612.0,1908.33331299,4576.66665649
areka,snnpr,wolayta,7.072039,37.704906,0.0,1.0,171.109522879,434.073787689,14350.9801255,2.39390801167,749.162506103,18915.9616089,1023.22302246,1039.5,133.333332062,2075.0
arero,oromiya,borena,4.64329575279,39.0246752751,73.0,0.0,1718.68251705,729.874036968,10827.7147827,4.85605008316,1065.55090332,12228.7852173,100.0,708.0,4259.2436676,6451.4503479
aroressa,snnpr,sidama,6.31138407686,38.9819774353,333.0,0.0,5249.04994583,3870.3111639,44097.8287964,3.05924819756,0.0,12978.6188049,579.106994629,1039.5,3347.02874756,9303.64147949
arsi nagele town,oromiya,west arsi,7.359784,38.671274,106.0,0.0,932.609464735,133.981517345,2105.54699707,2.0288663044,749.162506103,6318.34927368,200.0,820.0,2366.66668701,13385.7142944
arsi nagele,oromiya,west arsi,7.47954249002,38.7006103208,279.0,0.0,13223.4977722,2869.84835434,22235.697998,19.387868927,1928.4432373,81813.1601562,659.985351562,2610.0,27725.0004883,23996.0938339
artuma fursi,amhara,oromia,10.5233110719,40.0143436582,139.0,0.0,4770.02402878,2924.92443275,19528.2290039,12.6070766449,2200.0,42706.2559814,600.0,1799.0,22233.333252,17000.2243576
aseko,oromiya,arsi,8.52401276958,40.0855944154,106.0,0.0,5943.7009964,2049.22134018,12880.259552,5.63675281525,749.162506103,24401.8710327,200.0,856.0,9147.20758057,9400.0
asossa town,benishangul-gumuz,benishangul-gumuz,0.0,0.0,106.0,0.0,20.436511457,102.83565791,400.0,0.318447610855,749.162506103,18915.9616089,200.0,164.0,4466.66665649,200.0
asossa,benishangul-gumuz,benishangul-gumuz,9.97222887877,34.466290804,71.0,0.0,2015.10790801,857.861093402,670526.070679,49.2523883667,2175.75976562,128010.677979,95.699798584,560.0,14070.0,6117.07040405
atsbi,tigray,tigray,13.810721133,39.7590396634,168.0,0.0,862.585437775,356.066686749,2030160.0,9.06281281281,1100.0,40506.0806885,360.654785156,1416.0,13250.0,11427.9220581
awabel,amhara,east gojam,10.2120884348,37.9973965954,152.0,0.0,907.628596306,1398.98832279,26426.885498,22.8083629761,200.0,51994.4929199,168.744628906,1698.0,7350.00003052,13983.333313
aware,somali,somali,8.50293424518,44.0334336009,106.0,0.0,0.0,28.1818180084,119.207458496,0.2,749.162506103,18915.9616089,200.0,72.0,4466.66665649,100.0
awash fentale,afar,afar,9.10427441835,40.023494504,11.0,0.0,4572.02044535,4742.03052521,118.777015686,6.43636617279,749.162506103,4134.60572815,0.0,259.0,1600.0,340.0
awash town,afar,afar,0.0,0.0,106.0,0.0,122.020938635,101.704841614,14350.9801255,1.58816668296,749.162506103,18915.9616089,200.0,441.0,500.0,3890.0
awbare,somali,somali,9.76496170978,43.026772133,290.0,1.0,8931.27456379,4015.80165768,1537.222229,1.24197860813,3908.90185547,1168.66473532,200.0,595.0,2185.83334351,6643.16009521
aweday,oromiya,east hararge,9.360431,42.043432,30.0,0.0,591.86748457,873.021899559,565.880954742,0.983650260925,749.162506103,18915.9616089,0.0,307.0,0.0,1104.76190758
awera,afar,afar,12.1373710803,40.4644448467,106.0,0.0,5929.65125275,2912.95377445,14350.9801255,9.3293850708,749.162506103,133.333332062,200.0,428.0,908.333297729,5588.8888855
axum town,tigray,tigray,14.131871,38.747105,44.0,0.0,234.812956065,435.345188946,14350.9801255,0.918369685173,749.162506103,18915.9616089,5.8350520134,512.0,600.0,1940.0
ayder woreda,tigray,tigray,13.515811,39.464358,130.0,0.0,288.119166374,256.543796495,14350.9801255,3.7242307663,749.162506103,18915.9616089,118.511177063,577.0,250.0,2000.0
ayesaita,afar,afar,11.5466360215,41.5118982367,195.0,0.0,1390.23566437,1843.09737778,1575.14862823,6.19836538696,749.162506103,1143.19092464,200.0,984.0,1099.56710529,8170.39141464
ayira,oromiya,west wollega,9.10534174126,35.2824683597,68.0,0.0,796.32333672,44.880287379,40196.1368408,1.00190294409,1700.0,24653.2124634,92.5553131104,551.0,10566.666626,5546.66668701
aysha,somali,somali,10.6966856227,42.3627655689,111.0,0.0,3911.74068451,90.8828467876,14350.9801255,4.70071524048,1081.32910156,0.0,300.0,311.0,100.0,3400.0
babile,oromiya,east hararge,8.73911688722,42.5604155451,60.0,0.0,3382.61038017,1860.76244497,23802.2338867,6.23025828552,527.311584473,33648.3602905,62.3494911194,1166.0,11767.499939,7194.79838562
babile,somali,somali,9.12085552374,42.7842918774,28.0,0.0,6708.27154922,3522.61735153,2468.96551514,2.22072356606,749.162506103,1227.80194092,200.0,283.0,2403.33325195,2060.0
babo gambel,oromiya,west wollega,9.41926980287,35.0815415401,37.0,0.0,1263.18688798,241.746756479,13801.5194092,15.4253751984,1600.0,39669.8024902,199.401306152,777.0,14174.9998779,8057.14284515
baddennoo,oromiya,east hararge,9.03511543046,41.6327129022,69.0,0.0,16605.2224426,2605.42025375,21233.2995529,11.6639098854,1200.0,14599.795929,200.0,1959.0,9958.33337402,8435.2381134
baddesa town,oromiya,west hararge,8.90377,40.778529,44.0,0.0,121.362092018,252.624877833,14350.9801255,0.225351156831,749.162506103,18915.9616089,100.0,266.0,0.0,1100.0
bahir dar zuria,amhara,west gojam,11.560575649,37.3539722645,136.0,0.0,797.238220215,84.3892725408,17859.5652771,8.72960322571,1718.92858887,46046.7912064,275.204589844,2460.0,23683.3333282,26907.9520111
bakko,oromiya,west shoa,9.08409375845,37.1510392692,245.0,0.0,7642.59301758,3118.7231636,750.0,19.449611908,749.162506103,52996.5523682,116.838195801,1348.0,3691.66664124,11135.7142944
bambasi,benishangul-gumuz,benishangul-gumuz,9.77817899568,34.710934973,106.0,0.0,3809.00548458,1245.35675102,1262675.17627,43.1777661133,749.162506103,33913.9970703,200.0,561.0,4774.84118652,3795.23809814
banja,amhara,awi,10.9662854137,36.9106998046,106.0,0.0,2046.21541291,390.608019471,20002.4084473,41.4996955566,749.162506103,41099.7059326,200.0,1326.0,8869.99996948,12476.9230652
basketo,snnpr,basketo,6.26411974594,36.5588779825,16.0,1.0,1578.90979171,738.419206679,14350.9801255,4.97134539795,749.162506103,3243.81145096,100.0,1039.5,50.0,6243.48672485
bassoliben,amhara,east gojam,10.021847322,37.7145891461,176.0,0.0,2353.76457167,2625.95938408,15779.7088623,32.4525199585,976.104003906,27137.5053406,448.982696533,1446.0,7470.45449829,14016.4438782
bati woreda,amhara,oromia,11.1645694903,40.0575801202,114.0,0.0,9718.18228149,3738.83013058,19880.0547485,16.8315711975,552.321716309,12660.481041,287.989685059,1856.0,16200.0,15583.333313
batu,oromiya,east shewa,7.926804,38.720841,36.0,0.0,810.614379108,576.45628953,477.311460018,0.251889383972,749.162506103,18915.9616089,100.099990845,702.0,2300.0,4600.0
becho,oromiya,ilu ababor,8.14204980857,35.6874115424,23.0,0.0,224.185249329,0.0,12992.0269775,0.5,749.162506103,23302.9397888,200.0,460.0,13083.333374,3008.33332825
becho,oromiya,south wollo,8.64411644527,38.2436782513,102.0,0.0,2664.14526927,448.02496177,4200.0,17.9701810303,2000.0,21026.1972046,201.0,1366.0,776.666664124,6940.64787292
bedele town,oromiya,ilu ababor,8.456402,36.35406,29.0,0.0,261.76710099,160.960979223,14350.9801255,2.99438567543,749.162506103,18915.9616089,200.0,603.0,200.0,8214.28571415
bedele,oromiya,ilu ababor,8.46026409844,36.3907549984,43.0,0.0,2766.09503746,592.04149437,226690.882812,6.26609168625,400.0,53194.7744141,200.0,460.0,3663.33332825,4777.48220825
begi,oromiya,west wollega,9.33600123322,34.5468271665,129.0,0.0,1332.19121313,364.307453156,29067.90625,8.7704597702,4400.0,76777.638916,437.337158203,1334.0,14909.9999847,11804.999939
bele,oromiya,arsi,7.65881989947,40.0575144423,106.0,0.0,7421.27720642,2038.35911751,3333.8659668,2.90432918739,749.162506103,18222.4434814,200.0,783.0,5433.33332825,8300.0
bellojengafoi,benishangul-gumuz,benishangul-gumuz,9.35830404087,36.2021324315,33.0,0.0,1650.85901237,1848.788414,5152.94116211,18.267006958,749.162506103,9723.7061615,100.0,731.0,3775.00003815,13174.444458
bena tsemay,snnpr,south omo,5.43564010044,36.6593982558,0.0,0.0,416.048552871,227.561478943,252.046783447,3.3797057476,70.5589752197,4523.43403053,200.0,1039.5,429.166664124,2035.81308746
bensa,snnpr,sidama,6.52842151925,38.8398059641,241.0,0.0,10623.9238281,6109.48363876,283417.285889,1.53699419022,0.0,31612.8226318,1213.72369385,1039.5,4933.24804688,18069.7084351
berahle,afar,afar,13.8394805008,40.4300738609,106.0,0.0,2111.45894432,10828.6604156,1821.66503906,21.0345238037,749.162506103,0.0,200.0,765.0,2100.0,7200.0
berbere,oromiya,bale,6.69344837904,40.1841101777,109.0,0.0,3034.17683411,1294.2187233,91143.1452637,0.354034570813,1300.0,18697.9968872,310.002502441,1100.0,10271.9696655,12688.1738892
bercano,somali,somali,0.0,0.0,52.0,0.0,800.94468689,339.292114258,854.480545044,0.2,700.0,200.0,100.0,91.0,140.0,819.595962524
berehet,amhara,north shoa,9.18179041587,39.6851280792,91.0,0.0,113.099648297,10.7737983167,7008.2980957,2.3261713829,306.28112793,20858.666687,300.0,1147.0,11000.0,13800.0
bero,snnpr,bench maji,6.33106659052,35.226505977,73.0,0.0,7341.08014131,401.348748863,1676.25100708,2.07875287819,479.273971558,2583.04729366,49.110004425,1039.5,1100.2025547,2394.71543884
beyeda,amhara,north gondar,13.2517765161,38.4809184996,142.0,0.0,14693.5931244,4123.10521317,8423.60150146,7.15251241302,375.903442383,4213.65866344,369.150054932,966.0,5205.95233917,8950.28011322
bibugn,amhara,east gojam,10.8365221726,37.7495773155,148.0,0.0,5962.03577805,976.262072802,11935.3950195,12.8714654617,1200.0,21742.6083069,327.95880127,1218.0,12933.333313,12259.6031494
bidu,afar,afar,13.0045487074,41.5062965743,106.0,0.0,426.203414917,459.571825027,14350.9801255,1.04957265091,749.162506103,18915.9616089,200.0,211.0,4466.66665649,1800.0
birqod,somali,somali,7.599366,43.749758,106.0,0.0,991.274024963,321.507081032,14350.9801255,1.38221128082,249.225402832,895.0,200.0,100.0,4466.66665649,421.666664124
bishan guracha,oromiya,west arsi,7.09927,38.47937,106.0,0.0,71.1287690401,31.4596219808,1100.0,0.214144842625,749.162506103,2629.95546341,200.0,268.0,1433.33332062,2700.0
bita,snnpr,kaffa,7.36415868406,35.6681354962,121.0,0.0,57.7448774576,4.90009524114,795.823013306,0.75542276001,103.885757446,2136.76156616,994.280029297,1039.5,466.987522125,2260.34996033
biyo awale,dire dawa,dire dawa,9.52335,42.01405,35.0,0.0,2343.79267311,1356.42147589,10971.9151001,0.466666662216,500.0,19576.1064453,90.0565338135,618.0,5808.33331299,4600.0
boditi town,snnpr,wolayta,6.953265,37.857256,97.0,0.0,18.2896133065,18.1718004644,14350.9801255,0.331425422668,749.162506103,18915.9616089,200.0,1039.5,700.0,2380.0
boji chokorsa,oromiya,west wollega,9.26107593884,35.480844414,87.0,0.0,1929.95757961,45.7636355162,20510.8232422,3.11741522789,976.340820312,39610.4516602,300.0,772.0,16637.2724609,7391.30434418
boji dirmeji,oromiya,west wollega,9.39126690448,35.6471132972,32.0,0.0,403.075531483,181.98411119,209579.156006,22.2552471313,1500.0,25609.0759277,99.8034820557,506.0,16133.333374,6121.42857361
boke,oromiya,west hararge,8.40304031182,41.0070701015,72.0,0.0,8050.63289642,3413.15503311,39954.2601318,1.87656849575,1592.19555664,30280.3914185,263.086486816,961.0,12198.8887939,11435.0
bokh,somali,somali,7.56302049449,47.0471762728,106.0,0.0,564.21526432,121.165513039,14350.9801255,0.198961904526,749.162506103,248.076922417,200.0,54.0,4466.66665649,890.972221375
bole,addis ababa,addis ababa,8.98003533308,38.8390824509,737.0,0.0,482.893860579,491.038286507,14350.9801255,8.63292663193,749.162506103,18915.9616089,345.921386719,4090.0,1950.0,16947.9419556
boloso bombe,snnpr,wolayta,7.10300282351,37.5488523687,361.0,1.0,4871.45283699,1047.37078679,5561.40808105,1.792818923,335.898406982,11893.5445251,183.698570251,1039.5,3130.21188354,2358.38596344
boloso sore,snnpr,wolayta,7.06519415856,37.7136282522,249.0,0.0,302.615705013,64.8739988506,782.04473877,0.457779876709,482.504577637,2320.06141663,176.830291748,1039.5,664.108016968,2372.0
bona z,snnpr,sidama,6.51649839546,38.7067173863,106.0,0.0,1528.45329118,641.11468637,1022.87734222,0.16046434021,749.162506103,3962.84721375,200.0,1039.5,1097.91518402,4114.28571415
bonaya boshe,oromiya,east wolega,8.89992030802,37.0385698558,106.0,0.0,1527.37924576,814.590706706,19132.1875,10.5811408691,749.162506103,17232.244812,200.0,799.0,1418.33328247,9526.19048309
bonga t,snnpr,kaffa,7.26440045495,36.5518727173,48.0,0.0,45.897490561,40.0847246647,14350.9801255,0.250443694234,749.162506103,18915.9616089,296.048110962,1039.5,0.0,1350.0
bonke,snnpr,gamo gofa,5.90160121153,37.2734144229,285.0,0.0,23.4539114237,8.10681755096,495.708511353,1.23204638481,117.072395325,2318.16799927,174.217567444,1039.5,723.218456268,2212.25457764
bora,oromiya,east shewa,8.31915940208,38.9539528997,96.0,0.0,1093.57141399,1472.92784095,14349.2294922,20.5342967834,1616.2734375,25237.0184937,224.328430176,1105.0,6041.66663361,10978.0519409
borecha,oromiya,ilu ababor,8.31363463744,36.6733259679,124.0,0.0,4421.7181797,924.038807631,218415.606201,4.53120803642,1200.0,58793.5267334,399.492523193,1494.0,18341.111084,14686.808197
boreda,snnpr,gamo gofa,6.51733804023,37.6514159915,234.0,0.0,11.0925770998,4.30949709751,651.684822083,0.551699567795,121.108791351,1368.13618851,870.037055969,1039.5,978.854850769,2400.0
borena,amhara,south wolo,10.7456996983,38.691937233,161.0,0.0,7709.10242462,2049.2838707,27033.3312988,19.7446313171,1343.11181641,26737.4137573,505.023773193,2075.0,20910.0001221,18647.3809814
boricha,snnpr,sidama,6.89220989469,38.2308289962,304.0,0.0,2414.38533211,1320.73809576,53264.1347656,3.82927179718,50011.9111328,28627.024353,309.643028259,1039.5,9405.5750885,5244.92315674
boset,oromiya,east shewa,8.64741085149,39.5630201811,127.0,0.0,4858.68294525,3998.34280014,261463.929199,27.2203033447,1851.00939941,34900.9028931,200.0,2104.0,10667.4999542,7436.66661072
bugna,amhara,north wollo,12.1616954896,38.6992849738,106.0,0.0,7728.44999695,1133.30003071,10005.1094971,13.1762369537,749.162506103,14719.8475952,200.0,1089.0,8391.66656494,10850.0
bule hora town,oromiya,borena,5.641269,38.237316,106.0,0.0,16.7852658629,6.4561961107,14350.9801255,0.01875,749.162506103,248.433197021,200.0,276.0,100.0,2400.0
bule hora,oromiya,borena,5.64780711898,38.2221151433,106.0,0.0,9506.61915588,5756.48034286,8929.45666504,11.5227058105,749.162506103,57629.3896484,200.0,1437.0,8666.66662598,13409.5238342
bullen,benishangul-gumuz,benishangul-gumuz,10.5246161468,35.9515386572,136.0,0.0,1315.14919245,538.609352469,100938.687134,23.6949768524,485.041625977,29555.8867188,90.9815292358,484.0,4083.33334351,4076.29186249
bure,oromiya,ilu ababor,8.30312831812,35.1356882058,15.0,0.0,668.879741013,1385.17817406,7467.2388916,0.898587292194,1421.55175781,29508.1609802,96.0181808472,724.0,7721.66662598,7038.09525299
burie town,amhara,west gojam,10.705688,37.064373,53.0,0.0,325.214760855,451.932829261,651.459758759,4.33514972305,749.162506103,8598.06054688,100.0,1129.0,2000.0,9680.0
burie zuria,amhara,west gojam,10.5386961776,37.0477242516,210.0,0.0,681.60434401,373.889820009,15747.8820801,21.509869751,2000.0,28088.1170044,267.957550049,1477.0,8691.66668701,20102.8216705
buriji,snnpr,segen,5.48443040922,37.7844507411,106.0,0.0,593.405225754,694.676749349,14350.9801255,6.32188825226,749.162506103,11596.8751984,200.0,1039.5,100.0,4620.78430176
burqa dhintu,oromiya,west hararge,0.0,0.0,23.0,0.0,5783.84280396,1041.40427971,14350.9801255,2.98641965103,200.0,25296.18573,50.0499267578,682.0,600.0,8103.60244751
butajira,snnpr,gurage,8.121474,38.378377,106.0,0.0,164.377526671,341.619423755,14350.9801255,0.108126846433,749.162506103,18915.9616089,200.0,1039.5,399.999996185,1600.0
caliya,oromiya,west shoa,9.01941560156,37.3797821957,243.0,2.0,5448.27658844,3436.89787388,212337.714233,4.75982667828,512.364990234,31530.0534668,200.0,1971.0,16919.9997559,16944.9299927
celkari,somali,somali,6.02474789476,42.035173189,109.0,0.0,4807.58992767,2495.26091743,2110.0,0.93582144165,1000.0,2000.0,200.0,312.0,2675.0,2210.0
chagni,amhara,awi,10.956781,36.505122,73.0,0.0,2.95996717364,1.08095740527,772.598876953,2.8697084322,749.162506103,2180.63756561,84.024848938,1185.0,1500.0,5500.0
charati,somali,somali,5.31851763971,41.6680729491,106.0,0.0,2836.93110657,2791.56454086,10275.7146301,12.4419158325,749.162506103,14539.166626,200.0,558.0,1475.0,4668.07502747
cheha,snnpr,gurage,8.12532210122,37.8159607596,255.0,6.0,644.780255795,2132.72524176,3135.01324463,6.81015085602,353.389587402,9598.87469482,519.451370239,1039.5,5786.41897583,15650.9523315
chena,snnpr,kaffa,7.24031564926,35.8689182516,213.0,0.0,67.2806937099,30.1591894627,837.172424316,0.682810387611,311.175430298,1756.41851044,84.5825500488,1039.5,554.964332581,2275.93018341
chencha,snnpr,gamo gofa,6.24674280964,37.5649028114,263.0,7.0,36.0563461185,276.800537497,770.356369019,0.333333328247,749.162506103,2283.12245941,201.289039612,1039.5,513.425008774,2314.88604736
cheta,snnpr,kaffa,6.90704115089,36.3602986771,20.0,0.0,67.0176048577,24.606304571,798.37903595,0.534085927486,238.383285522,2054.45386887,100.0,1039.5,393.115982056,2367.5
chewaka,oromiya,ilu ababor,8.92587483428,36.118441332,68.0,0.0,4679.56637478,1659.57586622,1106.09947205,21.5072835999,100.0,32574.0812378,167.829681396,778.0,550.0,5939.39389801
chifra,afar,afar,11.6504983703,40.3416761693,178.0,0.0,8364.39563751,5602.89222527,1292.54595947,17.7863246613,749.162506103,660.0,200.0,643.0,2988.3332901,4314.52384949
chilga,amhara,north gondar,12.5960612575,36.9053914964,157.0,0.0,3048.19429016,2919.7531327,77794.8344727,52.4882789307,814.142883301,14693.445816,356.200866699,2221.0,3532.22222137,16284.9692841
chinakson,oromiya,east hararge,9.60065419127,42.6327874719,39.0,0.0,8211.3360033,1934.48134315,5595.90020752,0.407083332062,749.162506103,29833.8579102,200.0,1101.0,7233.33331299,6463.80952454
chiro town,oromiya,west hararge,9.08095,40.865385,106.0,0.0,140.385476828,340.450288348,14350.9801255,1.19190897632,749.162506103,851.773544312,98.4905929565,222.0,300.0,1601.66666794
chiro,oromiya,west hararge,9.06363060714,40.8040346625,97.0,0.0,15891.6259766,8321.04543304,14350.9801255,4.49929759598,749.162506103,50392.7124023,316.727325439,1444.0,900.0,9440.14492798
chole,oromiya,arsi,8.11538443143,39.9745522137,106.0,0.0,3597.67949343,1351.17494154,8670.45233154,5.65054099274,749.162506103,15036.4655762,200.0,1142.0,17066.666748,11500.0
chora botor,oromiya,jimma,8.32501414762,37.2527783928,54.0,0.0,3419.1881485,492.361555576,39839.53479,8.99026164246,833.351074219,58062.9215698,50.5426445007,1295.0,17428.8197632,14400.9426041
chora,oromiya,ilu ababor,8.36985331653,36.1238376493,104.0,0.0,952.871400356,350.868402958,15359.2834473,1.72526645422,749.162506103,22821.5666542,200.0,1332.0,2833.33341217,2865.7142868
d/tembein,tigray,tigray,13.6216917197,39.2252577353,185.0,0.0,2684.33789825,836.559915543,742685.803528,12.2486414795,790.114318848,56555.1025391,207.371353149,1663.0,11399.9997559,15709.7087784
d/zuryia,amhara,south wolo,11.0608208536,39.5260001342,148.0,0.0,12136.9900818,1733.78389168,46386.7458496,7.40356118011,1274.14575195,67258.8171387,693.940368652,2301.0,26318.0194092,19136.4035034
dabat,amhara,north gondar,13.0429041703,37.6963714984,180.0,0.0,8871.70638657,3083.52179337,28176.8704834,23.9998292847,100.0,18374.1006622,462.723480225,1697.0,4641.6665802,20731.4285889
dabo hana,oromiya,ilu ababor,8.72174124773,36.2468835158,106.0,0.0,427.849014759,112.323420048,9401.68066406,4.90918423462,97.5641021729,22509.541687,200.0,528.0,683.333335876,4947.5
dagah madow,somali,somali,8.13196437073,42.9643115955,106.0,0.0,590.772368908,175.715938091,14350.9801255,1.47612271118,749.162506103,580.0,200.0,89.0,4466.66665649,506.666664124
dale sadi,oromiya,kellem,8.8806157501,35.1829931765,108.0,0.0,3389.69589424,2385.84875393,47083.0693359,1.16668158197,800.0,50837.4638672,480.59362793,1405.0,20054.1663818,11795.4545364
dale wabera,oromiya,kellem,8.89980501948,35.0672750638,118.0,0.0,7919.09450531,1916.73332977,42519.3261719,17.8010437469,2084.32128906,65071.534668,260.089324951,1293.0,16222.0510254,14815.3334045
dale,snnpr,sidama,6.75247835576,38.393009136,666.0,0.0,1320.72618484,1017.08309007,13534.6273193,3.36068507957,2106.89208984,28341.7051392,800.0,1039.5,10209.5845947,11907.1284485
dalifage,afar,afar,10.5909068527,40.2307766432,12.0,0.0,3873.09344482,3516.06539536,203.801170349,5.89814189148,100.0,2101.7857132,200.0,505.0,350.0,900.0
dallol,afar,afar,14.23385927,40.0782098733,106.0,0.0,1161.12693024,2331.59791946,14350.9801255,0.420754547119,749.162506103,18915.9616089,200.0,368.0,266.666656494,1641.66665649
dalocha,snnpr,silte,7.76185643023,38.2689322359,130.0,0.0,216.870146155,241.54406774,2220.69821167,0.465379611969,363.387588501,4799.79936218,198.843582153,1039.5,1041.18593216,4369.83357239
dambal,somali,somali,9.9276687378,42.4610042588,106.0,0.0,3123.64343643,1658.01727772,14350.9801255,0.850974899292,749.162506103,0.0,200.0,210.0,133.333328247,2340.24859619
dambi dollo,oromiya,kellem,8.534827,34.800954,38.0,0.0,34.4615522623,7.45114392042,600.0,0.149728782058,749.162506103,1477.7564888,100.0,271.0,1200.0,3600.0
damboya,snnpr,kembata tembaro,7.35254959941,37.9570213266,285.0,0.0,283.109894753,66.8389233351,3115.33535767,1.46486980438,488.803771973,8898.11361694,491.837493896,1039.5,2346.70106506,6075.0
damot gale,snnpr,wolayta,6.98322930296,37.8839050406,91.0,5.0,1472.39080906,553.067155004,10601.3278198,9.33714878845,945.964361191,21482.9634399,516.592205048,1039.5,5888.55581665,9494.84204102
damot pulassa,snnpr,wolayta,7.04170799046,37.8589131538,351.0,18.0,1090.24160194,581.944713593,8210.6706543,2.49237494659,376.83215332,14373.8615723,810.219909668,1039.5,3501.51727295,7175.85861206
damot sore,snnpr,wolayta,6.95151645876,37.6574956642,116.0,3.0,1301.5835228,1373.21939552,3265.61218262,3.50285038757,1015.41986084,8487.72732544,0.0,1039.5,3255.23220825,4772.25672913
damot woyde,snnpr,wolayta,6.82673005019,37.9576288957,44.0,0.0,216.055826187,86.1053880602,5610.12588501,1.99543366814,1318.45715332,7566.8082428,201.210968018,1039.5,1734.3679657,2586.42713165
danan,somali,somali,6.72112624406,43.2808927603,106.0,0.0,64.7312831879,167.326846123,75.0,0.771490653992,749.162506103,400.0,200.0,222.0,841.666664124,2049.7618866
dandi,oromiya,west shoa,8.96709108228,38.123268024,105.0,0.0,3265.18444109,1463.25042975,1508.76483154,4.96478626108,300.0,24610.2569885,100.0,1916.0,2941.66671753,13672.5083466
dangila t,amhara,awi,11.258172,36.845119,70.0,0.0,146.49606517,5.75581465848,3918.92611694,4.22882534742,500.0,11936.842041,100.0,302.0,6600.0,8800.0
dangila w,amhara,awi,11.2265017871,36.7765821307,175.0,0.0,422.294633746,23.6459417343,27629.8503418,28.9945135498,1999.59509277,22448.7543945,368.21307373,1432.0,12366.6665649,11957.5
dangur,benishangul-gumuz,benishangul-gumuz,11.3596530907,36.0258696199,91.0,0.0,3069.47177887,1064.34778211,70823.0788574,23.6808720703,755.0,35822.3848963,99.6745681763,737.0,11025.0,1516.66666412
dano,oromiya,west shoa,8.74350571137,37.2924782561,112.0,0.0,2133.86450005,435.703821182,257176.77832,13.1432102814,422.972961426,39586.6512451,400.0,1087.0,11659.6154785,10485.5385208
danot,somali,somali,7.83234195384,45.9551981327,106.0,0.0,1489.69745159,773.401307583,14350.9801255,0.0369186058044,749.162506103,27.2727279663,200.0,83.0,4466.66665649,1280.0
dara malo,snnpr,gamo gofa,6.27024082975,37.2824855881,151.0,0.0,39.761867404,14.7962227091,1747.89981079,1.34172621918,0.0,2384.88156128,100.0,1039.5,774.43548584,2382.67543793
dara,snnpr,sidama,6.45231349641,38.3893861632,72.0,1.0,1408.58041573,904.29615593,18508.3247986,1.19546422577,749.162506103,10178.7729492,326.043083191,1039.5,2227.31356812,3250.21463776
daratole,somali,somali,7.30029,45.43974,106.0,0.0,340.518369675,361.669304371,14350.9801255,0.301958385468,749.162506103,18915.9616089,200.0,70.0,4466.66665649,900.0
darimu,oromiya,ilu ababor,8.59172883934,35.370617094,106.0,0.0,1927.25218356,545.998313725,16438.8006287,26.4285893555,749.162506103,69611.9938965,200.0,807.0,8744.05981445,5741.66664124
daro labu,oromiya,west hararge,8.47280064903,40.4949763282,96.0,0.0,13177.7215271,4582.93480301,26767.0157471,4.58565889549,2985.39770508,17452.2028275,246.25390625,1511.0,16613.2757568,17435.807869
daror,somali,somali,8.226061,44.69445,106.0,0.0,1572.07452202,578.593330264,1151.71044922,1.89097556305,749.162506103,968.333312988,200.0,169.0,4466.66665649,1103.33332825
dasenech,snnpr,south omo,4.68320681136,36.0812536594,7.0,0.0,196.080248356,127.818831891,158.640480042,0.582182152748,99.8683166504,1473.16292381,100.0,1039.5,221.777778625,2440.60744476
dawe harwa,amhara,oromia,10.7621385031,40.0530951884,30.0,0.0,7070.85258484,3215.2580719,6353.01025391,4.79772441101,201.329162598,10191.6755981,100.0,535.0,5419.99996948,4265.0
dawe kachen,oromiya,bale,6.65106352027,40.8114134469,52.0,0.0,2691.15113258,1361.76931977,6674.16836548,0.1,900.0,16231.6093597,299.969604492,788.0,8841.66662598,7884.2575531
dawe serer,oromiya,bale,9.262222,41.860556,48.0,0.0,4151.60886192,148.641213775,28502.7163086,0.733333335876,1700.0,25315.0379639,200.0,1023.0,11808.333252,11052.5973969
dawo,oromiya,south wollo,8.78471995775,38.160355321,55.0,0.0,7509.09779739,1115.794541,124630.0,9.84786628151,90.3225784302,6287.42402649,200.0,1105.0,5058.33331299,11303.333313
dawunt,amhara,north wollo,11.4714472774,38.836285461,106.0,0.0,2565.64910632,729.1634534,58314.6262207,5.17779150391,749.162506103,7594.38078308,200.0,1201.0,10783.333252,13100.0
debark zuria,amhara,north gondar,13.202808719,37.8351011927,126.0,0.0,8484.51426697,3567.95455742,117012.474243,32.0913285522,428.6640625,29244.2338867,113.143218994,2393.0,10893.3334045,24224.1453094
debark,amhara,north gondar,13.152954,37.898626,54.0,0.0,76.992991209,39.0921231508,14350.9801255,1.89474179459,749.162506103,18915.9616089,100.0,317.0,800.0,8200.0
debaytilatgin,amhara,east gojam,10.5392247595,37.9916408623,191.0,0.0,899.010210723,42.97084409,15352.6234131,8.32219302368,0.0,27774.6764526,261.490020752,1674.0,9858.33331299,12429.4872818
debirebirihantawon,amhara,north shoa,9.673712,39.530025,192.0,7.0,444.280755162,27.2359272242,3900.0,1.0691872437,749.162506103,8996.27450562,251.920257568,734.0,4983.33337402,19188.8888855
debre elias,amhara,east gojam,10.2317537897,37.3213633479,117.0,0.0,148.133009687,142.673577964,11999.5671387,21.1487840881,1331.77026367,25873.631958,308.072814941,1342.0,9316.66656494,13216.6666565
debre libanos,oromiya,north shoa,9.65680098112,38.8481363445,59.0,0.0,1513.41004491,1655.09986401,101123.237061,0.325,100.0,8655.88573551,200.0,525.0,3058.33332825,6157.1428833
debremarkos,amhara,east gojam,10.332184,37.733788,180.0,0.0,1030.83989224,64.7890807092,5211.72698975,3.71689223671,0.0,12670.8574829,274.455871582,1080.0,5216.66671753,8364.43307495
debretabor,amhara,south gondar,11.854792,38.013575,163.0,0.0,76.7743588686,13.3364872597,14350.9801255,2.66202402878,749.162506103,18915.9616089,289.115600586,854.0,999.999977112,7400.0
debub achefre,amhara,west gojam,11.4738988696,36.8182223878,302.0,0.0,380.888523638,240.042424738,11688.4261475,17.0765332947,1427.13989258,38942.5699463,534.401733398,2232.0,16633.333374,18575.0
decha,snnpr,kaffa,6.84090053255,36.165245443,24.0,0.0,112.002392888,55.7598290443,818.587562561,0.644959028244,269.969017029,2042.55358887,70.0059967041,1039.5,762.08650589,4438.91946411
deddo,oromiya,jimma,7.41340278316,36.9272787055,106.0,0.0,14513.5102539,7198.13674927,192007.011719,5.36241251326,749.162506103,79932.416626,200.0,3502.0,16509.6048584,31082.7220185
deder town,oromiya,east hararge,9.317062,41.441747,30.0,0.0,86.2263599634,19.3240936249,199.577407837,0.1,749.162506103,18915.9616089,200.0,241.0,575.0,2553.33333588
deder,oromiya,east hararge,9.25853417487,41.4215945923,184.0,0.0,4532.2912674,890.793855667,95583.793457,6.73716386414,1874.7199707,76150.7199707,800.0,1998.0,13711.0838623,22060.7142944
dega damot,amhara,west gojam,10.8501773673,37.6082376977,158.0,0.0,1170.53887224,1440.78293324,27632.7924805,42.5159980469,1200.0,40449.4542542,371.372558594,1786.0,26766.666748,19500.0
dega,oromiya,ilu ababor,8.59366303234,36.1082282963,106.0,0.0,1099.03413033,21.9812232256,1537.5254364,0.644419837952,749.162506103,28160.776001,200.0,442.0,641.666671753,2500.0
degem,oromiya,north shoa,9.80791011845,38.6211085412,135.0,0.0,3327.07944107,681.48161006,11070.3128967,3.17563229179,400.0,24438.0913086,64.5802078247,1460.0,13304.166626,15269.0942078
dehana,amhara,waghimra,12.4385733917,38.672040515,106.0,0.0,11028.4844208,10976.9621325,9256.47885132,17.263849762,749.162506103,46853.1976318,200.0,1554.0,6087.50007629,15278.5574341
dejen,amhara,east gojam,10.1990188419,38.1755728199,150.0,0.0,586.35392189,372.720842123,14693.1778564,25.0621526489,844.047607422,41489.892334,495.747406006,1590.0,18366.6663818,15200.0
delanta,amhara,south wolo,11.592294,39.212608,122.0,0.0,8464.13595581,1499.0311842,22985.7416992,6.21669947243,749.162506103,49124.1903534,500.0,1738.0,3300.0,2600.0
dembecha,amhara,west gojam,10.5212216717,37.3541584853,224.0,0.0,542.907529116,3069.97612238,16706.1435547,17.7653237915,2093.09765625,36994.4859619,550.696777344,1757.0,18900.0,17600.0
dembia,amhara,north gondar,12.4023871678,37.263331388,166.0,0.0,4171.47602582,879.561442912,28948.6760254,51.2969602051,1510.81408691,24064.885498,193.460388184,2366.0,8201.38882446,22991.7644157
denba gofa,snnpr,gamo gofa,6.45018325721,37.0007497457,58.0,0.0,21.756387651,2.2498616986,777.58454895,0.574844330788,303.808227539,2395.74175262,872.951854706,1039.5,906.787715912,2340.91719818
dera,oromiya,north shoa,10.2119019004,38.6309437096,176.0,0.0,13006.1511688,6625.57398224,46234.5445557,21.9740998383,1107.82189941,38312.8253784,93.5762557983,1656.0,16931.2178955,17962.0238647
dera,amhara,south gondar,11.6073767222,37.6695410605,208.0,0.0,2372.20103836,2578.40063381,30613.3417969,34.3320931396,1404.55505371,23071.8120575,591.919067383,3506.0,20041.6668701,27061.7288818
derashe,snnpr,segen,5.64596602123,37.3925783099,304.0,2.0,399.843572855,585.875811219,9562.63064575,2.15985124683,455.391296387,3957.55406952,280.414558411,1039.5,1314.28515625,4536.51231384
dewa chefa,amhara,oromia,10.7649754564,39.8494760271,163.0,0.0,7573.80640411,3074.99279022,30303.901001,11.5615944061,749.162506103,25436.239563,499.739196777,1801.0,19761.666626,15893.2746124
dewe,afar,afar,10.791670426,40.2999078535,106.0,0.0,8748.26902008,6402.23993683,200.0,10.5080016327,749.162506103,0.0,200.0,660.0,400.0,2235.7142868
dhas,oromiya,borena,4.20534285796,38.8361569375,106.0,0.0,1175.96523464,445.190041363,4294.6721344,0.857308648109,749.162506103,9021.31630802,200.0,747.0,633.333343506,6560.41662979
dhekasuftu,somali,somali,0.0,0.0,106.0,0.0,3390.01985931,932.374588013,1017.23841858,7.18681417847,749.162506103,2383.40129089,200.0,128.0,1199.99995422,447.817459106
dibate,benishangul-gumuz,benishangul-gumuz,10.4450521005,36.2154091845,106.0,0.0,4493.63919163,989.510133743,112747.622559,39.3263607178,749.162506103,21922.0332031,200.0,799.0,2899.99987793,5477.09594727
didesa,oromiya,ilu ababor,8.09927202195,36.5663811908,79.0,0.0,3653.66620517,1466.15053909,3100.0,5.24345072746,749.162506103,23325.2861328,300.0,664.0,200.0,5269.85293579
didu,oromiya,ilu ababor,7.96113268098,35.5633797392,110.0,0.0,1270.28006029,176.53066206,5430.60241699,0.0,749.162506103,16706.3951721,200.0,542.0,2150.0,6041.23158264
diga,oromiya,east wolega,9.0600018486,36.3259073309,155.0,0.0,3809.40346527,1426.29947042,14350.9801255,17.9162341614,700.0,26051.7084351,200.0,1062.0,1350.0,9196.15384674
digalu,oromiya,arsi,7.73052926749,39.2296168236,106.0,0.0,1900.32566166,1058.57843623,15535.125,0.0,749.162506103,5569.19480896,200.0,1396.0,16001.0,11533.3333435
dilla town,snnpr,gedeo,6.414717,38.309111,92.0,0.0,211.685410261,101.245275766,14350.9801255,0.441352958202,749.162506103,18915.9616089,99.8121490479,1039.5,4466.66665649,2212.49999237
dilla zuria,snnpr,gedeo,6.35576713367,38.3385112325,67.0,0.0,4324.73506165,434.050296068,1959.03683472,1.69216625214,749.162506103,7910.71776581,200.0,1039.5,1235.31745148,5732.222229
dillo,oromiya,borena,4.05145446311,37.8685684485,38.0,0.0,2232.18354321,659.290242314,5868.31747437,3.55391776657,800.0,19268.2114258,100.0,536.0,5308.33337402,5130.0
dimma,gambella,gambella,6.99475823337,34.6861386893,106.0,0.0,373.605573893,269.566957951,1864.44519043,2.80212585449,749.162506103,843.926239014,200.0,568.0,100.0,1797.61903
dinsho,oromiya,bale,7.06512151542,39.7756604321,73.0,0.0,494.908483028,183.316163003,12123.8453979,0.2,749.162506103,13192.6425323,99.95337677,947.0,6654.77770996,10380.0
dire dawa operational woreda health office,dire dawa,dire dawa,9.62631417052,41.9121338641,106.0,0.0,1459.19888079,922.45473206,3643.33325195,1.28704818296,749.162506103,1063.58581161,200.0,412.0,300.0,6451.93651581
dire teyara,harreri,harreri,9.37217,42.127369,106.0,0.0,1688.71022511,521.413195133,24339.8770752,1.63200942421,600.0,9774.12744141,200.0,248.0,3299.99998474,2616.66666603
dire,oromiya,borena,4.15620451745,38.2121754321,97.0,0.0,1701.53045416,396.869529903,2589.96630859,1.02932548809,1300.0,30958.3449097,333.333343506,1324.0,3083.3332901,1543.33334351
dita,snnpr,gamo gofa,6.27132977446,37.4446130081,78.0,0.0,84.6176578999,23.398915045,1619.35016632,0.48912171936,749.162506103,2335.873703,100.0,1039.5,777.213382721,9727.38101959
dobba,oromiya,west hararge,9.30245325064,41.0902987456,27.0,0.0,9102.31636047,8798.89574814,40691.053833,9.2362017746,2208.32202148,43835.0384521,30.4787368774,1561.0,15169.6030884,10172.3901825
dobowayn,somali,somali,6.14984378263,44.2671914742,106.0,0.0,1731.37264156,0.0,14350.9801255,8.45556231689,749.162506103,18915.9616089,200.0,171.0,4466.66665649,80.0
dodota,oromiya,arsi,8.27563073581,39.2716772869,106.0,0.0,8752.55778503,2794.76017618,6574.61242676,6.59135778809,749.162506103,7310.97180939,200.0,515.0,2299.99996948,25464.615387
dolo mena,oromiya,bale,6.2691697476,40.0389270884,77.0,0.0,4383.2615242,1579.02456474,137259.023804,0.733530757904,749.162506103,11961.3961029,200.0,807.0,6183.33334351,8762.27272034
doloado,somali,somali,4.34553468043,41.3726706325,106.0,0.0,3981.46981049,2184.90250444,415.384613037,9.93507130909,749.162506103,799.927024841,200.0,1017.0,66.6666641235,3730.26315308
dolobay,somali,somali,4.5185401043,42.1788758758,106.0,0.0,8389.32104492,1198.52006435,14350.9801255,0.2,749.162506103,1900.0,200.0,259.0,4466.66665649,1776.66664886
doreni,oromiya,ilu ababor,8.45277215263,35.7736223426,27.0,0.0,165.816640556,111.986337125,62729.8565674,2.47990180326,800.0,14610.7623596,100.0,500.0,3973.88885498,4827.38095093
doyogena,snnpr,kembata tembaro,7.381156612,37.804281005,58.0,2.0,199.532347918,148.1893709,2437.14031219,1.14056048334,232.950157166,4773.20072937,237.066108704,1039.5,1215.43300629,4146.29626465
dubti,afar,afar,11.6834141566,41.1028886079,106.0,0.0,6707.64155579,3398.8508358,200.0,13.5383553467,749.162506103,3139.71409607,200.0,375.0,500.0,2483.33332825
dugda dawa,oromiya,borena,5.33137555608,38.2724862415,76.0,0.0,7173.34428596,2931.53400922,232321.514893,3.89074104309,749.162506103,11298.9873352,200.0,862.0,8200.0,7400.0
dugda,oromiya,east shewa,8.18052174482,38.7775627759,55.0,0.0,3071.23755264,2550.4127171,74903.6872559,25.7412980957,1289.20715332,56869.5318604,143.878143311,1910.0,14577.8789062,36328.7003174
duguna fango,snnpr,wolayta,6.94175185788,38.0471814667,220.0,2.0,523.609974831,188.382843658,1486.43959045,0.595499659061,93.6759662628,4678.11696625,166.227256775,1039.5,1416.74989319,2677.66086578
duhun,somali,somali,7.22068522717,42.5724843857,47.0,0.0,1731.37264156,61.9047622681,151.923080444,0.8,397.777770996,18915.9616089,200.0,221.0,200.0,1800.0
dulecha,afar,afar,9.51465605835,40.0762137983,106.0,0.0,535.050598145,243.292823195,14350.9801255,4.2458012352,749.162506103,18915.9616089,200.0,82.0,66.6666641235,500.0
duna,snnpr,hadiya,7.33274248056,37.660045061,222.0,0.0,11306.5944824,3230.29079628,10257.4333191,3.38765983582,421.085296631,15956.0169678,230.986877441,1039.5,5093.66125488,2374.70429993
durame t,snnpr,kembata tembaro,7.24413,37.902789,270.0,0.0,178.782341287,2306.01503754,14350.9801255,0.0278524116129,749.162506103,18915.9616089,200.0,1039.5,600.0,7625.0
e/slasie,tigray,tigray,14.104443,38.286924,125.0,0.0,263.15127039,79.1590468511,14350.9801255,1.58669181132,749.162506103,18915.9616089,100.0,754.0,100.0,5833.63636017
east azernet berebere,snnpr,silte,7.78457845426,38.0192219351,12.0,0.0,17.6028070897,12.3126104698,949.939735413,0.431799401283,13.6406393051,2150.70794678,183.859054565,1039.5,680.690074921,2377.97203064
east badawacho,snnpr,hadiya,7.16211326103,38.0091101638,338.0,9.0,1027.23744583,950.341430768,3403.44311523,3.35433356476,153.195999146,7625.09983826,13.1055559739,1039.5,720.72716713,2813.21604156
east imey,somali,somali,6.65120748221,42.5856605775,106.0,0.0,254.303800583,200.50841713,14350.9801255,1.83825576782,749.162506103,200.0,200.0,260.0,4466.66665649,1560.7142868
ebantu,oromiya,east wolega,10.0666902443,36.4381400747,49.0,0.0,5908.97080052,1414.67025185,2988.26184082,10.7412770691,1000.0,25325.8984375,200.0,542.0,2308.33334351,4728.74472046
ebinat,amhara,south gondar,12.1891614977,38.2357026391,201.0,0.0,21185.3127747,6309.60440826,20785.8566742,45.2752038574,1558.11340332,27734.5211334,895.843505859,2682.0,1883.33334351,24306.560173
efratagidim,amhara,north shoa,10.3128518563,39.8801135158,138.0,0.0,1328.82507896,387.408461809,23741.4805298,7.04563072968,526.315795898,25753.3098145,413.709716797,1559.0,11525.0,11286.666687
ejere,oromiya,west shoa,9.06611439717,38.3702481058,119.0,0.0,3170.81307626,223.585321158,96195.1490479,3.6813101263,749.162506103,32677.4844666,393.851745605,1051.0,15250.0,11196.8827438
elidar,afar,afar,12.3129354577,41.7368782697,53.0,0.0,0.0,1487.31219101,10085.2331543,2.5393802681,0.0,0.0,300.0,718.0,1517.84311187,4916.66657257
emba alaje,tigray,tigray,12.9450329172,39.4218170102,125.0,0.0,4929.54745483,846.229739428,41403.7477417,15.7106956482,821.749816895,48297.2375488,164.876403809,1464.0,9099.92054749,13076.1538696
enarji,amhara,east gojam,10.6840293256,38.2162177748,305.0,0.0,909.299812883,329.639762565,671782.324463,14.2364732513,664.036315918,52342.5834961,254.757766724,1930.0,16016.666748,32359.9593582
endamokoni,tigray,tigray,12.7531281091,39.4509942568,98.0,0.0,3736.90670013,457.422760248,101565.909668,2.64794371796,749.162506103,44512.6829834,131.981384277,1197.0,14325.0001221,9599.99996948
enderta,tigray,tigray,13.4373660001,39.5551344931,169.0,0.0,1997.04422188,432.591719627,133704.103088,7.32715891266,600.961608887,35919.8939209,261.191894531,1859.0,15833.9743652,16500.0
enebsisarmidir,amhara,east gojam,10.8643782646,38.3927659279,284.0,0.0,4719.87111664,497.280663311,25905.4182129,33.9306463013,3300.0,62664.6506348,700.0,2275.0,28400.0,27000.0
enemay,amhara,east gojam,10.5009800291,38.1743777379,197.0,0.0,890.368668079,200.90790239,23715.9790039,15.0629559326,2200.0,38023.3952637,65.5854644775,2122.0,28300.0,19257.5999146
enemor ener,snnpr,gurage,7.98470422564,37.7558766863,480.0,1.0,4614.69231796,1144.46988979,17401.3837891,9.21317757034,3051.03601074,50336.8430176,395.003509521,1039.5,11685.6955566,13703.4334106
ensaro,amhara,north shoa,9.82598653826,38.896167511,86.0,0.0,724.106702805,280.9116759,30945.8688965,2.719166852,200.0,25830.0961914,79.9665374756,1121.0,8901.19042969,9800.0
erbti,afar,afar,13.160895302,40.4032244051,106.0,0.0,2278.10919762,3025.00449085,200.0,5.29215337372,749.162506103,184.523803711,200.0,531.0,316.666660309,3096.66666412
erer,harreri,harreri,9.34497,42.21092,53.0,0.0,4847.65460587,1425.04167604,5347.14855957,6.01276057243,454.327636719,3265.25675201,100.0,285.0,2041.66665649,2970.0
erer,somali,somali,10.1968723131,41.492498756,106.0,0.0,0.0,1019.99873161,1806.50476074,14.7362571564,749.162506103,2630.31744385,200.0,686.0,758.333312988,171.428573608
erob,tigray,tigray,14.4902136777,39.6763049498,106.0,0.0,2128.19250679,597.329980731,46525.495575,1.88075382805,749.162506103,20040.0,200.0,1333.0,5491.66662598,11150.000061
essra,snnpr,dawro,6.84121206811,36.8814772177,157.0,0.0,521.939632773,383.464976288,5654.68121338,3.95409255981,1841.14154053,4955.70609283,39.5152778625,1039.5,1204.59178162,7915.88232422
estie,amhara,south gondar,11.3825783935,37.9250348111,524.0,0.0,18579.3028717,5414.32116127,273861.517822,79.7944820557,3010.4375,68543.9666901,1381.30651855,5304.0,28972.3803711,47005.0
ewa,afar,afar,11.8898791873,40.0634194244,0.0,0.0,4165.98209381,1496.34082603,2902.10922241,7.82426057434,394.40637207,75.0,200.0,474.0,3466.66668701,1466.66666412
ezha,snnpr,gurage,8.12724079123,38.0380693636,140.0,0.0,189.097814143,15.3491870649,9498.19104004,0.726702896595,997.949737549,28815.1181641,141.148414612,1039.5,8811.55584717,2500.33670044
fagita,amhara,awi,11.0790901625,36.893833477,193.0,0.0,2454.1235114,729.122100949,26707.1672363,36.3236429443,1162.99755859,23057.3404846,542.959960938,1772.0,10525.7574463,15673.8095398
fantalle,oromiya,east shewa,8.91082065384,39.880925014,123.0,0.0,5749.3946991,3939.87781334,3688.50549316,17.5686539917,432.30569458,20419.0616455,41.1764717102,1473.0,3225.0,7500.0
farta,amhara,south gondar,11.8409174506,38.0691803599,283.0,0.0,4461.04571152,2042.77392805,35921.9696045,22.8650689392,486.223052979,23347.6227722,906.120117188,2759.0,11600.0,24035.1074219
fedis,oromiya,east hararge,9.02617357296,42.1510990118,119.0,0.0,7460.28709412,2805.65138412,6592.23742676,9.204106987,1900.0,23843.669342,100.0,1374.0,5174.99990845,12029.166687
ferefer,somali,somali,5.50409568032,45.2148668729,42.0,0.0,1049.52899361,431.953797817,372.892372131,2.06853469849,749.162506103,1900.0,200.0,190.0,50.0,1804.41175461
fiik,somali,somali,8.07168149416,42.3645824118,84.0,0.0,720.152669907,302.40259552,14350.9801255,0.4,500.0,18915.9616089,200.0,231.0,4466.66665649,1500.0
filtu,somali,somali,5.08361230004,40.8816019217,106.0,0.0,1426.4037137,537.007083893,1441.75030518,2.78151634216,749.162506103,946.210510254,200.0,376.0,100.0,1271.58385849
finot selam town,amhara,west gojam,10.681103,37.259617,95.0,0.0,53.2583140172,2.31615284085,1600.0,3.5993909111,200.0,4367.92152405,90.971572876,1091.0,5503.15789795,12500.0
fitche town,oromiya,north shoa,9.786816,38.736119,86.0,0.0,81.1712319553,145.003164172,14350.9801255,1.16498812771,749.162506103,18915.9616089,172.142974854,463.0,1700.0,3025.0
fogera,amhara,south gondar,11.8826143111,37.7659901672,324.0,0.0,5176.21935272,1701.27314258,24361.9676514,25.4225305176,1922.20471191,10657.9622726,900.0,2942.0,14733.333107,42670.2379913
g/afeshum,tigray,tigray,14.2357461576,39.3832859463,84.0,0.0,2862.59643173,412.099624395,285661.955017,15.7357617493,875.714294434,46869.2722168,67.9283065796,1429.0,9994.72213745,11816.6666565
g/bakiksa,somali,somali,5.89945259043,41.2267465001,106.0,0.0,495.606615067,305.579135895,500.0,0.592964862823,749.162506103,18915.9616089,200.0,53.0,466.666656494,759.803909302
g/damaole,somali,somali,6.6121,40.481,106.0,0.0,415.938510895,155.979325771,14350.9801255,0.110713216543,749.162506103,0.0,200.0,28.0,4466.66665649,400.0
g/kore,dire dawa,dire dawa,9.58798,41.85461,48.0,0.0,206.09811005,460.087142676,14350.9801255,0.0419638095498,749.162506103,18915.9616089,189.899353027,613.0,50.0,3416.66671371
galadi,somali,somali,6.71182836282,46.3789511044,106.0,0.0,5199.80979156,2030.80604362,93.4116363525,4.38062354279,749.162506103,2850.27358055,200.0,244.0,400.0,2483.62330246
galana,oromiya,borena,6.04326569341,37.9882097767,38.0,0.0,2793.58945084,2212.0332644,27912.6156006,11.406811264,933.193664551,27926.449707,200.0,1402.0,8953.33319092,12748.4020386
gambella woreda,gambella,gambella,8.11771747467,33.9822821048,106.0,0.0,346.351449966,231.956881344,895.965515137,9.01239374733,749.162506103,1563.18985939,200.0,425.0,100.0,1760.91269588
gammachis,oromiya,west hararge,8.88337119087,40.9943627197,65.0,0.0,14785.7781372,5693.93941116,12701.6452637,1.88269646645,2266.05859375,46618.250061,66.5939331055,1527.0,8079.16662598,5441.86990356
garbo,somali,somali,7.57689863243,42.9571831664,22.0,0.0,209.500473022,64.0188159943,200.0,0.691666656494,749.162506103,18915.9616089,200.0,104.0,200.0,700.0
gasara,oromiya,bale,7.36841509242,40.1559456239,263.0,0.0,2474.52467632,615.499299765,196672.150879,0.972564098358,600.0,20205.1111755,500.0,1140.0,14050.0001221,14824.5003052
gashamo,somali,somali,8.2887187527,44.8134829731,106.0,0.0,774.885129929,529.088076353,1172.99578094,8.18610098267,749.162506103,1371.90478516,200.0,264.0,763.88885498,2120.0
gawo kebe,oromiya,kellem,9.10623351104,34.9224187268,132.0,0.0,6319.88891602,3004.07749557,41555.7670898,11.1728754044,2789.97998047,48533.3638916,272.655944824,1244.0,23621.0526123,18135.0934143
gazgibla,amhara,waghimra,12.3173913736,39.057137456,106.0,0.0,9528.35546875,8902.22219849,424053.341553,2.23662515259,749.162506103,26865.9705772,200.0,818.0,10866.666626,9700.0
gechi,oromiya,ilu ababor,8.28924586648,36.4890707086,52.0,0.0,2934.22100449,1100.56298518,14350.9801255,0.611352515578,400.0,54058.0600586,62.7227325439,964.0,100.0,8448.75
gedeb,snnpr,gedeo,5.918342,38.2505,260.0,0.0,271.889000535,491.043752253,449.636863708,0.955592281342,749.162506103,1565.27914906,45.2031326294,1039.5,254.004367828,4616.62714481
gedebano gutaze welene,snnpr,gurage,8.30106628649,38.1892155161,127.0,0.0,698.054303646,240.35987246,1244.13038254,1.02369176435,18.4108524323,928.447534561,285.663482666,1039.5,444.728897095,6336.32482147
gelealu,afar,afar,10.2839007334,40.4627299821,106.0,0.0,10152.9612885,3984.62540436,14350.9801255,6.59220363617,749.162506103,5850.0,200.0,549.0,80.0,1889.16664124
gena,snnpr,dawro,7.15511040182,37.3243958861,175.0,0.0,413.34142971,24.3506164178,14582.8549805,9.93864550781,627.074462891,9825.01335144,567.945739746,1039.5,2352.01769257,6947.41229248
gendeewuha,amhara,north gondar,12.782045,36.407532,37.0,0.0,30.650316745,1.94416967034,14350.9801255,1.60439468002,749.162506103,18915.9616089,74.8250808716,305.0,100.0,600.0
genji,oromiya,west wollega,9.02263502265,35.5877074124,21.0,0.0,1433.52971178,820.115483373,20557.0091553,6.75486994553,73.1707305908,35885.4093018,82.5,392.0,8711.5604248,1054.62962723
gera,oromiya,jimma,7.69601864151,36.2220944603,99.0,0.0,2574.61790085,607.199448824,21396.9880371,2.36784870911,749.162506103,39157.7546997,357.474639893,1303.0,6041.86474609,38708.3497772
gesha,snnpr,kaffa,7.62888965513,35.6965511059,116.0,0.0,32.0832670778,7.25596674532,796.907279968,0.426186014652,749.162506103,1925.4896431,85.7856903076,1039.5,539.678928375,2362.66665649
geta,snnpr,gurage,7.91110734678,37.962136672,203.0,0.0,419.409591675,266.037796021,6755.42584229,0.217619046211,749.162506103,19170.9093018,300.0,1039.5,7851.9230957,11200.0
gewane,afar,afar,10.4961616917,40.7699474126,106.0,0.0,1731.37264156,4799.3009491,809.458251953,5.6489926157,100.0,463.928573608,200.0,563.0,4833.33331299,6049.72221375
gewata,snnpr,kaffa,7.55136818323,35.9809385828,109.0,0.0,23.3981910944,7.71223424003,852.626945496,0.206888493657,324.734718323,1954.03342438,246.334636688,1039.5,560.151477814,2319.99998856
geze gofa,snnpr,gamo gofa,6.3480215818,36.7934574687,140.0,0.0,26.6708093435,3.79867780581,754.183952332,0.972949653625,749.162506103,2188.25768661,179.996208191,1039.5,576.56634903,2388.72794342
gibe,snnpr,hadiya,7.72824096032,37.6571052268,241.0,0.0,6771.23558807,2771.04602432,9490.03186035,3.63258607101,600.0,17994.0800781,1058.42514038,1039.5,5915.31420898,4800.0
gida ayana,oromiya,east wolega,9.89807610929,36.6392357146,27.0,0.0,3595.58763742,1349.88926572,435.942932129,16.8669478302,749.162506103,25028.7023926,46.0175056458,1091.0,2125.0,6600.0
gidami,oromiya,kellem,8.88299291502,34.402618581,315.0,0.0,1238.85894012,264.311611772,22434.1582031,15.4437462921,2800.0,51206.1634521,500.0,1093.0,17785.6904297,14753.9178696
gidan,amhara,north wollo,12.0708154112,39.3158061197,106.0,0.0,13227.3049011,2022.362041,124028.118744,3.27711621094,749.162506103,21270.1303868,200.0,1887.0,7591.66665649,16256.6666565
gimbi town,oromiya,west wollega,9.184165,35.833325,144.0,0.0,100.281166434,145.479079321,2498.39635468,0.821515732944,749.162506103,1232.24186707,70.6985015869,840.0,2749.99996948,8885.51727295
gimbi,oromiya,west wollega,9.14528074802,35.898571224,107.0,0.0,1415.4329263,490.48233968,34417.7556152,10.0517717514,3300.0,46589.0766602,400.0,918.0,10566.666748,9397.36842346
gimbichu,oromiya,east shewa,8.99846063499,39.196130447,102.0,0.0,377.265658379,82.9688766897,89457.7462158,0.1,749.162506103,54316.7980957,0.0,1039.0,17002.77771,12537.0524445
gimbo,snnpr,kaffa,7.35516601843,36.219848931,114.0,0.0,23.8760226779,12.3240297362,769.802703857,0.642656500816,120.518463135,1991.04470062,137.405887604,1039.5,527.943523407,2315.07034302
gindeberet,oromiya,west shoa,9.64901894645,37.7699071659,106.0,0.0,9209.0524919,1134.28605586,15861.3948364,21.1123790283,749.162506103,35941.3624878,200.0,1443.0,13100.0000305,11403.5714722
ginnir town,oromiya,bale,7.138664,40.712156,41.0,0.0,1731.37264156,730.879030257,14350.9801255,0.5,749.162506103,18915.9616089,200.0,0.0,4466.66665649,12100.0
ginnir,oromiya,bale,7.11403688012,40.707676897,138.0,0.0,4203.95907974,1511.94104767,37517.6434937,0.835,690.196228027,21799.9387054,200.0,1914.0,10616.6668091,24273.4821777
girar jarso,oromiya,north shoa,9.77704355346,38.7526369251,34.0,0.0,12218.035408,3672.60273993,3300.0,5.44497772217,100.0,29112.3643799,200.0,664.0,3900.0,6672.1428833
girawa,oromiya,east hararge,8.22300552442,41.8518662085,120.0,0.0,14744.0657654,7829.60759735,33862.3673096,8.94763091278,749.162506103,42415.3134766,760.0,2540.0,13455.7391357,20893.4100952
girja,oromiya,guji,6.15018849941,39.2203392129,56.0,0.0,4025.83034134,2034.86703491,12545.1964111,2.88333344269,0.0,6247.11471748,300.0,1055.0,13533.333252,8196.54241943
gisherabel,amhara,north shoa,10.5773359224,39.5983619304,52.0,0.0,5035.41293716,490.362050653,7883.78637695,0.8,141.666671753,16012.4250793,100.0,989.0,9933.33337402,8739.99993896
gobu sayo,oromiya,east wolega,9.16136442947,36.9632225051,48.0,0.0,943.895700455,208.423636317,2347.88342285,6.83826840687,700.0,6631.25175476,200.0,524.0,2116.66662598,6175.0
gode,somali,somali,6.10809152424,43.5328110578,106.0,0.0,200.0,225.0,1850.0,0.2,749.162506103,500.0,200.0,113.0,4466.66665649,157.575752258
godere,gambella,gambella,7.24240598136,35.2584810983,106.0,0.0,669.35063839,391.773033381,8036.58984375,16.8204836121,749.162506103,5721.34589005,200.0,364.0,2226.9230957,4902.0703907
gog,gambella,gambella,7.60912844597,34.2921409296,74.0,0.0,635.190613031,851.85072732,1552.83624268,13.4172928772,749.162506103,2746.47989082,100.0,658.0,50.0,4637.40193558
gola-oda,oromiya,east hararge,8.39887501987,41.5626050048,0.0,0.0,5332.38955307,2841.18708324,3093.14379883,2.42884873199,1700.0,20744.6917343,200.0,895.0,2233.33334351,5316.66666412
goljono,somali,somali,8.859785,42.68729,106.0,0.0,964.86661911,530.480702877,250.0,0.0733333358765,749.162506103,300.0,200.0,56.0,40.0,166.666664124
gololcha,oromiya,arsi,8.27241131927,40.2130977922,106.0,0.0,12940.7651443,6804.88862991,11017.420105,11.7197018127,749.162506103,11566.356781,200.0,1080.0,6666.66665649,8771.32158661
gololcha,oromiya,bale,7.54791125311,40.6049568559,66.0,0.0,1939.48735428,963.948264122,65129.2873535,2.08639851809,997.565185547,22970.9384155,199.985671997,1276.0,8130.55551147,13384.4709778
gombora,snnpr,hadiya,7.57532655316,37.6166655241,198.0,0.0,2018.30002403,1793.83562022,7971.31341553,8.19601713562,749.162506103,10489.7125854,400.0,1039.5,5197.29470825,4739.58332825
gomma,oromiya,jimma,7.86782546973,36.5798707239,178.0,0.0,6778.45951843,156.074178457,31573.9389648,9.92116741943,2700.0,48055.5628967,910.0,3192.0,26218.6901855,29609.8127213
goncha,amhara,east gojam,11.0767679876,37.6359186805,170.0,0.0,966.576376915,413.077212334,71929.5925293,36.3705848389,2668.50195312,60246.2332764,700.0,2052.0,22500.0,19536.9047852
gondar zuria,amhara,north gondar,12.4261125477,37.5543926615,224.0,0.0,4300.76457214,2936.5556426,166899.288788,27.1257761841,1229.86328125,61851.6945801,700.0,2034.0,15316.6665649,16983.333313
gonji kolela,amhara,west gojam,0.0,0.0,115.0,0.0,2346.31343222,375.451233149,17336.0842285,16.4800436401,1142.56811523,43635.4330444,409.162811279,1720.0,17266.6665039,20400.0
gorche,snnpr,sidama,6.84176379501,38.5952689127,86.0,3.0,2457.78374338,766.977532864,6261.19639587,0.370890849948,473.619216919,6575.88751984,149.501541138,1039.5,1608.75236511,2436.9213047
goro dola,oromiya,guji,5.46609429028,39.3778764524,42.0,0.0,2827.03083611,2452.10738564,41144.3338318,16.7668535767,600.0,14134.6213074,28.0,1076.0,3710.00003052,9246.66664124
goro,oromiya,bale,6.94504898646,40.5073087495,85.0,0.0,6765.83232355,2571.99132967,55650.7041016,2.2638888855,700.0,18915.9616089,264.123901367,1400.0,8721.94454956,12914.5771275
goro,oromiya,south wollo,8.42447256658,37.8860590318,81.0,0.0,4111.82396698,1037.56603527,8480.00518799,13.8528149719,1900.0,19852.9645691,100.0,1126.0,5666.66668701,10290.5072479
gorro gutu,oromiya,east hararge,9.42577823402,41.3470059734,65.0,0.0,10524.1459808,974.741520882,33792.6981201,0.927170467854,2120.34985352,50663.4249268,200.0,1539.0,10787.083252,13766.6666565
gozamen,amhara,east gojam,10.2349195674,37.5944157679,477.0,0.0,1771.95650196,300.864528179,55450.6306152,21.7073433533,749.162506103,52576.0405273,471.319702148,1976.0,25533.333252,23340.0
guagusa,amhara,awi,10.8239628445,37.0235879723,106.0,0.0,451.804651737,490.764922559,11329.6594238,22.9912303925,749.162506103,23072.2844849,200.0,1193.0,5783.33334351,9949.6449585
guangua,amhara,awi,10.7782320958,36.5004294364,99.0,0.0,237.735575795,113.739993855,12382.1005859,14.4986880112,1600.0,22703.612036,400.0,1115.0,402.77779007,11000.0
guba qoricha,oromiya,west hararge,8.92380230884,40.5209801106,92.0,0.0,10567.1624756,3215.80486679,26262.6552734,1.69593354845,1639.55322266,36332.3863525,437.529876709,1089.0,18426.6584473,11347.8806458
guba,benishangul-gumuz,benishangul-gumuz,11.4873931195,35.4521156623,59.0,0.0,2654.37535667,1367.4493795,7630.55981445,16.9719820251,300.0,13942.7327499,100.0,309.0,1400.0,2483.70097351
gubalafto,amhara,north wollo,11.7946909632,39.4961721944,106.0,0.0,11652.946106,1336.96721172,57585.1333008,5.69966559601,749.162506103,50726.0794849,200.0,1918.0,5619.99989319,17376.1904297
gudeya bila,oromiya,east wolega,9.36569219711,36.9216675091,127.0,0.0,1756.18650889,684.032848597,14350.9801255,2.99498804927,749.162506103,13193.8059387,200.0,554.0,0.0,7100.0
guduru,oromiya,horo guduru welega,9.44002598536,37.4198991786,68.0,0.0,2323.40162468,1623.03243336,42690.2211151,28.3845748291,600.0,45922.2138519,59.4256591797,1746.0,15956.4101562,14234.835144
gulelle,addis ababa,addis ababa,9.07147941649,38.7448599371,605.0,1.0,607.264464378,1326.70837605,14350.9801255,3.63370472717,749.162506103,18915.9616089,393.876708984,2612.0,1075.0,12975.3030396
gulina,afar,afar,12.1756988436,39.9736568647,6.0,0.0,2644.8416748,1031.5284977,1207.73358154,2.51945128632,366.644958496,632.496234894,200.0,264.0,1764.39611053,1069.09090424
gulliso,oromiya,west wollega,9.19060930428,35.3281985154,0.0,0.0,1336.95277739,267.994784355,24202.4777832,9.55491727638,215.0,39306.21875,90.8980865479,1352.0,10940.7141113,13107.222168
gulomekeda,tigray,tigray,14.405498081,39.4070981486,366.0,0.0,1395.61004829,359.642478228,63490.7962036,12.8994554749,998.188415527,40600.0,56.7075691223,1854.0,13816.6668091,17800.0
gumer,snnpr,gurage,7.96842202756,38.0593967274,143.0,7.0,603.926824212,1462.62029062,31611.3007812,0.72,749.162506103,16203.0366821,226.801979065,1039.5,3616.2147522,7364.32580566
gummay,oromiya,jimma,7.94682935118,36.441509415,78.0,0.0,1976.80114746,951.841588974,12838.3797607,2.53792793751,1000.0,22211.0491943,8467.86816406,906.0,9125.97088623,12127.1428833
guna,oromiya,arsi,8.32203625298,39.9255570195,106.0,0.0,2896.99205303,966.194835067,30546.9762573,0.3,749.162506103,25629.392334,200.0,813.0,12166.666626,11085.7142944
gunagado,somali,somali,7.88644527566,44.2488013465,106.0,0.0,790.278259277,324.177817345,14350.9801255,1.8010462265,749.162506103,790.0,200.0,83.0,4466.66665649,475.0
gura dhamole,oromiya,bale,6.2848650663,40.5688055534,25.0,0.0,3314.61537552,863.03133297,9512.01599121,0.316666668892,100.0,13215.6953583,40.7549362183,808.0,6444.52380371,7040.75576782
guraferda,snnpr,bench maji,6.89613036699,35.1686687579,82.0,0.0,35.1199270338,9.80710700527,1488.84244537,1.13546603584,749.162506103,1332.09212494,92.9315414429,1039.5,293.579911031,2687.10580444
gursum,oromiya,east hararge,9.30975206016,42.4590360076,119.0,0.0,10706.6826324,7422.05915833,200116.202148,3.14961502171,1389.31628418,54109.21698,100.0,2008.0,26375.3789062,18356.8000565
gursum,somali,somali,9.23334275991,42.6406401366,45.0,0.0,2935.85251999,1476.51796055,139.732879639,5.03341327405,749.162506103,1416.66666412,200.0,385.0,371.428573608,2913.33334351
guto gida,oromiya,east wolega,9.28016475621,36.5960442482,149.0,0.0,2251.62278175,609.040515423,5478.95320129,20.2193656921,749.162506103,26702.0609741,200.0,696.0,5800.0,6505.76721191
h/wajrat,tigray,tigray,13.134439001,39.5795862223,171.0,0.0,5529.6111908,950.62276268,64435.588623,12.3017033997,2023.35327148,54106.4641113,345.960540771,2231.0,14478.3656006,14734.2424011
hababo guduru,oromiya,horo guduru welega,9.81484175966,37.5164982565,78.0,0.0,688.168586493,706.92378664,587286.072266,19.0059385986,1299.0456543,12294.0515442,30.2142677307,1060.0,5018.33325195,11000.0
habiru,amhara,north wollo,11.6627434564,39.7665757398,106.0,0.0,13726.9354095,1981.19981003,42409.406311,7.59952501678,749.162506103,40368.4349976,200.0,2091.0,19390.0,15261.2392654
habro,oromiya,west hararge,8.75036270586,40.5269118331,102.0,0.0,13524.4211731,4926.78447914,108333.878662,2.21654220247,2729.75439453,45093.0107422,139.151306152,1219.0,8964.73217773,12971.1287956
hadeleala,afar,afar,10.318252904,40.2815009165,106.0,0.0,1685.17221069,148.104614258,14350.9801255,4.38402966309,749.162506103,2900.0,200.0,809.0,253.846160889,5126.09393311
hadent woreda,tigray,tigray,13.57705,36.77238,106.0,0.0,982.710008383,287.418735728,14350.9801255,1.85374193215,749.162506103,18915.9616089,200.0,617.0,750.0,3478.72340393
hadero tunto,snnpr,kembata tembaro,7.22218726588,37.6504439504,187.0,0.0,1453.33246803,392.393750787,2486.21481323,1.13954918957,292.608261108,5830.58036804,374.279495239,1039.5,1684.93515015,4700.0
hageremariam,amhara,north shoa,9.18896234453,39.3787139789,60.0,0.0,951.728178084,521.279274881,13788.4284668,0.416666666031,581.667663574,16915.4571838,178.591522217,986.0,6864.99995422,7439.76193237
hakim,harreri,harreri,9.278056,42.145833,47.0,0.0,292.355837584,154.449871182,678.901156425,1.62785009956,100.0,1721.39314651,99.8076934814,287.0,500.0,2835.10102844
halaba,snnpr,halaba,7.41120206141,38.2123098428,338.0,2.0,2946.02047348,905.033990383,27366.0266113,2.29628654909,1870.60083008,29624.6287842,105.995347977,1039.5,4127.3326416,2356.7902298
halu,oromiya,ilu ababor,8.15608908304,35.34537503,74.0,0.0,375.719362497,14.2857141495,7877.05059814,1.66280686069,0.0,22658.0054321,200.0,294.0,1550.0,4083.33334351
hamaro,somali,somali,7.64526250959,42.3435661408,86.0,0.0,305.815601826,267.490838051,133.59072876,1.39166665649,400.0,18915.9616089,200.0,218.0,200.0,1450.0
hambela wamena,oromiya,guji,5.92316538405,38.483713753,93.0,0.0,2711.85557985,3426.86139488,6535.23815918,0.170909088135,749.162506103,23451.7736511,200.0,1387.0,5571.66656494,10980.7144165
hamer,snnpr,south omo,4.94409534485,36.49148988,13.0,0.0,462.296093464,271.055228323,1926.76548767,4.23383577347,150.0,4644.05447483,2041.19128418,1039.5,1287.29006958,3276.04411697
haramaya,oromiya,east hararge,9.34253475671,41.9970719779,134.0,0.0,10723.8964691,5368.23721695,128593.083984,10.4472482224,200.0,30948.3608398,355.264007568,1932.0,8427.30761719,9399.92782354
harena buluk,oromiya,bale,6.41373654666,39.5344836273,34.0,0.0,2734.80209255,589.448063612,3206.05578613,0.319642857075,732.884521484,11748.9388809,500.0,1645.0,5416.66659546,19945.1718369
hargale,somali,somali,5.48451046249,42.3087851459,106.0,0.0,1390.13320923,430.274064183,3903.89117432,1.39090905762,749.162506103,1443.33331299,200.0,87.0,250.0,934.02117157
haro limu,oromiya,east wolega,9.81955238507,36.247701646,22.0,0.0,1827.13448524,769.844132662,2287.08795166,10.5905129509,749.162506103,24175.4880371,100.0,819.0,2600.0,5883.33334351
harshin,somali,somali,9.215244,43.593131,31.0,0.0,11092.9832458,5273.47493362,3142.49401855,0.414797180176,1282.4621582,76.6666660309,32.0996742249,358.0,1516.66664505,2114.56962967
haru,oromiya,west wollega,8.96220067916,35.8427574621,167.0,0.0,428.738009095,347.381226659,20341.2801971,2.94021155143,749.162506103,46021.5487061,283.806152344,721.0,12404.166626,7959.82144165
hawa gelan,oromiya,kellem,8.59927180143,34.9835503305,101.0,0.0,9166.96411896,3530.19708729,26827.9741211,5.46279070473,900.0,41936.5863037,287.496826172,1418.0,9977.63171387,13963.333313
hawassa z,snnpr,sidama,7.05088753764,38.3407656694,207.0,0.0,230.587591052,506.992132425,7283.19418335,0.824052370071,222.56851387,4019.12948608,369.120452881,1039.5,1201.95662689,4669.11499023
hawassa,snnpr,hawassa,7.048016,38.49427,761.0,16.0,63.3820518255,22.467595771,1312.05654907,1.25288583851,1396.57769775,2402.81118774,130.804794312,1039.5,1406.30451202,4523.19376373
haweliti woreda,tigray,tigray,0.0,0.0,112.0,0.0,699.979619265,21.7978779674,14350.9801255,1.34710154247,749.162506103,18915.9616089,108.29535675,629.0,216.666664124,1300.0
hawuzean,tigray,tigray,13.9687867866,39.3855041389,156.0,0.0,1887.04546833,564.750707984,37207.7928467,26.6615795898,686.29486084,55622.0587158,257.361877441,1400.0,15999.999939,12199.4872131
hawwi gudina,oromiya,west hararge,8.12405086946,40.7046877318,112.0,0.0,2267.41719484,855.56024152,14350.9801255,4.26028660822,771.139221191,25583.1878357,100.0,996.0,3100.0,6909.43225861
hedhebu abote,oromiya,north shoa,9.96192424361,38.5396098176,130.0,0.0,6712.15440369,1530.59184647,122061.175293,12.0536920166,419.35357666,25854.3273315,16.2835121155,1063.0,7496.03167725,11257.9624329
hetosa,oromiya,arsi,8.04413004187,39.2651745639,106.0,0.0,8100.6118927,4113.6973381,41601.3336792,2.73658701992,749.162506103,16722.8388977,200.0,1190.0,5416.66661072,8437.28851318
hinkolo wabe,oromiya,arsi,7.41362892478,39.4603638537,106.0,0.0,3174.56945038,554.897759199,3581.04486084,1.04978158379,749.162506103,6477.96104431,200.0,666.0,1100.0,7801.0
holota town,oromiya,finfine special,9.064889,38.49103,185.0,0.0,2013.96708107,243.075879201,50077.5783691,0.865,749.162506103,12133.0409546,197.909408569,945.0,4086.66668701,8002.77780151
homa,oromiya,west wollega,9.06262841876,35.7110838892,59.0,0.0,138.968868166,29.4399785399,10098.5714111,2.3374575758,200.0,20178.4363174,100.0,308.0,9458.33337402,2500.0
homosha,benishangul-gumuz,benishangul-gumuz,10.3037701924,34.5697911618,106.0,0.0,2557.58907604,1510.31460452,150493.271484,7.62623469543,749.162506103,23176.8769531,200.0,551.0,1466.66668701,6515.91181946
horoo,oromiya,horo guduru welega,9.66285415226,37.1301424709,110.0,0.0,1280.21800041,537.955136761,115277.458252,3.65795236206,749.162506103,24446.0941772,300.0,1612.0,9701.66676331,16363.1199951
hossana,snnpr,hadiya,7.552589,37.853179,129.0,0.0,63.2539315224,436.949152529,14350.9801255,0.582899716377,749.162506103,18915.9616089,174.216659546,1039.5,261.142856598,2561.35530853
hudhet,somali,somali,5.0717952311,40.1173490785,106.0,0.0,3455.95123291,5113.67192936,14350.9801255,3.82009984589,749.162506103,700.0,200.0,416.0,4466.66665649,2653.03031158
hula,snnpr,sidama,6.49622287,38.5625264573,219.0,0.0,3164.86684036,2099.52424908,5987.77944946,1.13085200262,749.162506103,15523.2944641,400.397796631,1039.5,3926.45565796,9354.24243164
hulbarag,snnpr,silte,7.770355,38.181202,164.0,0.0,78.0429610014,48.175632,1269.63941193,0.286024829447,210.165779114,2311.74220276,99.1279983521,1039.5,661.508472443,2400.0
hulet eju,amhara,east gojam,10.9806736715,37.9034527795,352.0,0.0,2414.83078432,650.61846596,127557.708496,25.752262085,3310.77807617,72774.1142578,1036.578125,3388.0,19696.1037598,26616.3157654
humbo,snnpr,wolayta,6.66920226315,37.8253937223,150.0,1.0,1606.50013733,523.697016448,6572.24172974,4.44282727051,1623.07037354,16703.5315552,193.752344131,1039.5,3697.25799561,4792.11309814
hurumu,oromiya,ilu ababor,8.24212913591,35.7832970095,41.0,0.0,1354.08842728,123.972634315,9710.11428833,4.39519406128,672.916687012,16946.6465912,200.0,552.0,4833.33328247,4835.18798828
ilfata,oromiya,west shoa,9.18681371792,37.926479405,32.0,0.0,2742.94739342,1129.56370765,7768.8442688,5.38708782959,600.0,11872.7156219,200.0,883.0,5066.66659546,6496.91175079
ilu,oromiya,south wollo,8.82334452225,38.3184006634,189.0,0.0,1268.48273432,97.7901474983,40074.713562,11.6979285278,1086.24328613,10164.3617601,251.079574585,868.0,4901.44226074,6111.90481567
ilugalan,oromiya,west shoa,8.881451,38.770464,174.0,0.0,2592.33014297,680.04393661,3053.61552048,5.7078315444,692.901062012,23533.3923645,100.0,926.0,10416.666687,17936.9458618
injibara,amhara,awi,10.958319,36.932452,89.0,0.0,13.0542122275,300.072780207,797.076026917,1.93291886902,749.162506103,2400.0,64.229385376,564.0,1299.99998474,5000.0
jabi tehinan,amhara,west gojam,10.6978627949,37.2727400514,189.0,0.0,267.580786645,18.1665854938,25626.8378906,30.436736145,300.0,59993.9615479,171.860046387,4970.0,30067.6472168,51900.0
jaldessa,dire dawa,dire dawa,9.713889,42.119722,26.0,0.0,1643.17570305,745.097567081,4674.28560257,2.66333332825,0.0,4111.11111069,200.0,539.0,1000.0,5150.0
jalduu,oromiya,west shoa,9.32151643108,37.9997035755,103.0,0.0,9931.76660919,5199.56380844,66112.265625,15.4931001892,1430.7623291,26991.1685791,61.6869697571,1580.0,13110.9219971,17602.3811035
jamma,amhara,south wolo,10.4037675051,39.2598522499,98.0,0.0,5778.13679504,3439.73297501,18155.5710449,3.95314349174,600.0,25106.6269836,392.531463623,1847.0,18300.0000305,21693.333374
janamora,amhara,north gondar,13.0127951901,38.1992870426,134.0,0.0,17237.3704529,4579.23212814,16337.3753662,13.8827327423,1023.76190186,25920.1176453,410.0,1565.0,15566.666748,13660.3999023
jardegas jarte,oromiya,horo guduru welega,9.89748256151,37.1324019266,106.0,0.0,492.001800299,1193.7680037,13401.1162109,9.73712544632,749.162506103,16956.8905983,200.0,1497.0,10933.3334351,16026.8312683
jarso,oromiya,east hararge,9.54273658122,42.3265776363,135.0,0.0,1337.72601318,886.622467041,68982.7376709,3.40593315315,1500.0,8687.6865921,500.0,1451.0,5208.33325195,7672.59259033
jarso,oromiya,west wollega,9.40943044135,35.2903623191,62.0,0.0,376.089494109,114.357064933,72710.4266357,3.06719093895,1564.15527344,25750.4194336,65.9100875854,484.0,6800.06845093,860.0
jawi,amhara,awi,11.7116924165,36.405030798,196.0,0.0,1960.25916624,361.536765277,15209.253418,26.5921641846,2395.49365234,9080.67922592,396.634124756,1643.0,8299.99987793,14157.777832
jeju,oromiya,arsi,8.35797712021,39.6738503927,106.0,0.0,18270.502121,6074.60761261,19751.1315918,11.8272577667,749.162506103,32875.0786133,200.0,1951.0,22800.0,19600.0
jenila,harreri,harreri,9.306814,42.12877,682.0,2.0,300.686966896,822.794937134,43911.1410065,3.40330807304,100.0,464.588603973,196.884521484,608.0,666.666656494,5640.40032959
jibaat,oromiya,west shoa,8.73088491499,37.4718720604,60.0,0.0,1764.57440758,344.872096181,61983.8312988,3.01812877655,106.142036438,41301.5683594,101.558830261,1019.0,7643.73730469,14162.9121399
jigjiga,somali,somali,9.352316,42.794194,514.0,1.0,5333.06047249,5440.71479034,1413.10800171,0.2,623.536865234,400.0,200.0,1047.0,1686.66666412,7752.0
jikawo,gambella,gambella,8.34136487381,33.7236437419,102.0,0.0,1489.30024219,769.060915112,1202.92007446,5.08747529793,900.0,765.030436516,200.0,325.0,858.333328247,3705.3296814
jille timuga,amhara,oromia,10.2451252169,40.0465449333,18.0,0.0,13565.3333282,2414.69270158,56693.1900024,13.2933530579,200.0,5650.30460548,200.0,1129.0,1100.0,8140.0
jima arjo,oromiya,east wolega,8.706736475,36.5401493755,68.0,0.0,1878.42161369,658.21223259,48321.862793,21.0628079567,1766.66662598,24859.3219604,300.0,1044.0,4276.66667175,9272.30767822
jima raree,oromiya,horo guduru welega,9.24356269911,37.3350792528,102.0,0.0,2062.17094105,511.401947737,12618.2775879,8.59390617371,749.162506103,11256.8170166,200.0,1016.0,12816.6665039,9200.0
jimma gannatii,oromiya,horo guduru welega,9.4047461864,37.141183596,106.0,0.0,1262.53935409,470.306141496,12047.5735016,5.99406158161,749.162506103,12105.7974701,200.0,808.0,3115.27778625,8831.66671753
jimma horro,oromiya,kellem,8.98483212464,34.7189177808,29.0,0.0,9748.19097042,1345.92038226,14544.8532715,8.54552115631,749.162506103,29913.9790344,300.0,913.0,15341.666748,7887.5
jinka t,snnpr,south omo,5.783083,36.565504,59.0,0.0,126.183153927,572.626121685,231.011737823,0.311570367336,749.162506103,3432.60877991,76.0526351929,1039.5,337.5,2400.0
jor,gambella,gambella,7.89018666466,33.7468855009,106.0,0.0,155.555557251,82.5,14350.9801255,0.716,749.162506103,18915.9616089,200.0,20.0,4466.66665649,100.0
k/awelaelo,tigray,tigray,13.752857769,39.5186998211,90.0,0.0,2424.78133774,496.12930727,875283.066406,8.2034353714,666.666687012,33157.8329468,171.011581421,1471.0,12441.666626,12093.3333435
k/humera,tigray,tigray,14.0475625383,36.9347003836,418.0,0.0,2663.29045486,688.329423904,156182.467773,23.2260806274,885.110351562,29806.0060425,478.795898438,3014.0,11365.8334351,15940.0
kabri dahar,somali,somali,6.88948268664,44.1034067019,16.0,0.0,367.251449585,340.331199646,14350.9801255,0.807669815063,700.0,18915.9616089,200.0,23.0,4466.66665649,300.0
kacha b,snnpr,kembata tembaro,7.22876216724,37.7683999322,472.0,0.0,938.999821663,308.927363902,2998.16845703,1.3618139782,385.324127197,9206.41137695,617.358512878,1039.5,3991.45001221,11559.615387
kalafo,somali,somali,5.73610086888,44.1772369224,106.0,0.0,14912.3166199,5229.93746948,2204.54545593,10.1334706421,749.162506103,12724.3544922,200.0,815.0,491.111122131,6381.28967285
kalu,amhara,south wolo,11.0631747125,39.8361998453,166.0,0.0,4644.25441742,855.716639996,27287.5944824,7.2540284729,1886.02722168,40812.5787354,760.934753418,2754.0,20008.333374,20769.6970215
kamashi,benishangul-gumuz,benishangul-gumuz,9.46770778898,35.9053344833,106.0,0.0,1476.60835123,221.723480821,79464.3713989,18.5517936401,749.162506103,8482.78111649,200.0,251.0,666.666660309,1733.33332062
kebena,snnpr,gurage,8.31337665374,37.8997864492,93.0,0.0,218.067251459,40.2819572967,3774.98223877,3.93903343964,318.285064697,11333.0447235,600.0,1039.5,5554.43725586,7200.0
kedida g,snnpr,kembata tembaro,7.24342378926,37.9434083312,170.0,0.0,661.106697083,160.27406235,801.026916504,1.44979907608,330.109619141,2400.29799652,597.592010498,1039.5,1864.95544434,7000.0
kelala,amhara,south wolo,10.5440778802,38.997608898,189.0,0.0,6812.08477783,3219.46766853,23257.7321777,18.6779966736,739.851196289,30261.4872437,400.0,2814.0,19272.1867065,21578.2692261
kemba,snnpr,gamo gofa,5.99699658383,37.1362305582,100.0,0.0,70.4370211363,55.6919727921,1006.1384964,1.01463375664,75.7840957642,1967.84418488,200.0,1039.5,587.78937149,2347.00352478
kemissie town,amhara,oromia,10.723145,39.870801,79.0,0.0,335.310965061,203.110721409,1841.78417206,1.82694550753,172.726623535,15700.0,9.99228858948,994.0,1300.0,4182.30769348
kercha,oromiya,guji,5.7656594419,38.4750919782,59.0,0.0,4590.41578865,12843.6799011,38000.3051605,2.52032983398,466.533721924,18439.8467102,200.0,1643.0,10065.3846436,17354.0421066
kersa malima,oromiya,south wollo,8.48855604944,38.4876222979,123.0,0.0,3998.6652832,1797.61610126,104160.309326,15.4282532654,618.539550781,21345.5647278,87.6146774292,1028.0,9313.75,12211.5934753
kersa,oromiya,east hararge,9.38879115922,41.8056773167,53.0,0.0,4968.32516479,1919.98136139,302646.973633,7.67517304993,400.0,38943.1310425,200.0,1609.0,15258.333374,9574.55361938
kewet,amhara,north shoa,9.97874734736,39.9066854276,85.0,0.0,1996.54625916,930.814041913,13557.3665771,5.01706339645,749.162506103,11787.1894531,200.0,823.0,11416.6663208,6096.4630661
kiltu kara,oromiya,west wollega,9.73175141299,35.2716869935,48.0,0.0,992.560032278,31.0246626437,16919.522583,17.8533590088,1900.0,36005.9891357,100.0,602.0,11703.3330994,7837.5
kindo didaye,snnpr,wolayta,6.76680636015,37.350783557,217.0,5.0,813.682213783,2314.75402433,11991.0109863,5.75674534607,237.993408203,20791.8574219,962.670501709,1039.5,6179.40789795,4776.90475464
kindo koisha,snnpr,wolayta,6.92044112825,37.5137366831,285.0,4.0,1477.56885719,415.090631559,12082.8830566,5.76778993607,1006.09509277,18610.7120361,124.705749512,1039.5,5104.51806641,2410.13551331
kiremu,oromiya,east wolega,10.0581907337,36.8097687092,109.0,0.0,809.099081516,361.833116055,17412.4865112,7.80847848511,1200.0,28035.3664551,200.0,636.0,10125.0001221,7484.76196289
kirkos,addis ababa,addis ababa,9.00100380353,38.7584372178,214.0,0.0,878.650455475,131.465395987,14350.9801255,3.76820726013,749.162506103,18915.9616089,179.440063477,1803.0,700.0,16101.4173584
kobo t,amhara,north wollo,12.1037779416,39.6430484734,106.0,0.0,373.095449924,109.763636246,800.0,2.44153388309,749.162506103,1075.35298157,200.0,643.0,1134.50979888,5724.60317993
kochore,snnpr,gedeo,6.04172320971,38.1853310515,118.0,0.0,171.654098034,54.3983579874,536.846252441,1.03789054203,25.0,1028.78186035,200.0,1039.5,307.984642029,2059.7026825
kokosa,oromiya,west arsi,6.79646490673,38.8130513481,338.0,0.0,1231.52603245,803.807263255,11397.1638184,0.0,749.162506103,7428.36501312,500.0,1739.0,8100.0,13126.6667023
kola tembein,tigray,tigray,13.7050031864,38.914568507,144.0,0.0,5391.67588043,4106.97084045,458169.396484,32.3780446167,900.0,58099.1774902,204.435440063,1932.0,13635.583252,14727.1429138
kolfe,addis ababa,addis ababa,9.01022465463,38.6871969767,1069.0,1.0,1128.32618213,703.720422655,14350.9801255,8.45647404385,749.162506103,18915.9616089,385.727783203,3007.0,1666.66665649,21198.7586823
kombolcha,oromiya,east hararge,9.50588736744,42.17878352,137.0,0.0,3319.30029297,1009.05945456,12333.5784912,3.58905000496,1800.0,38298.7407837,300.0,1390.0,8928.41259766,13051.2637787
komebelcha,amhara,south wolo,11.087279,39.729147,232.0,0.0,1487.72494221,732.70371592,4591.9821167,2.81240670395,200.0,12150.8508301,263.295623779,1247.0,4333.33331299,9500.0
kondala,oromiya,west wollega,9.38705758614,34.7652631624,101.0,0.0,4657.72355461,580.936983764,34795.4150391,29.8039387207,3200.0,49552.5689697,214.877044678,1020.0,18733.333374,12035.1587524
koneba,afar,afar,13.9029295126,39.9440138069,106.0,0.0,869.462947845,448.830495119,14350.9801255,0.674805557251,749.162506103,18915.9616089,200.0,112.0,4466.66665649,504.545454502
konso,snnpr,segen,5.35219550497,37.3940454022,106.0,0.0,237.955967426,112.863972247,14350.9801255,0.442305145264,749.162506103,2165.91986847,200.0,1039.5,220.833332062,2432.12355042
konta sw,snnpr,konta,6.86912308336,36.6038753686,34.0,0.0,44.7386901379,109.416535258,1894.81874466,0.919391477585,167.033248901,2186.19500351,51.7168884277,1039.5,432.198707581,2064.84088898
korem town,tigray,tigray,12.509256,39.519882,112.0,0.0,585.480201244,169.76512973,14350.9801255,0.700648309231,749.162506103,18915.9616089,14.2388277054,286.0,250.0,3569.2307663
kori,afar,afar,12.5370557633,40.9312037895,106.0,0.0,45.4545440674,71.5999999046,14350.9801255,0.115833335876,749.162506103,18915.9616089,200.0,37.0,100.0,400.0
kucha,snnpr,gamo gofa,6.51575584285,37.3642199367,337.0,0.0,12.7284770757,11.0908251405,2413.5974884,1.18248412514,301.370910645,4026.97953796,127.327987671,1039.5,1285.92708588,2371.68101501
kurfa,oromiya,east hararge,9.24075390066,41.8620124952,23.0,0.0,5933.99942017,692.189787388,78715.0904541,8.48870333099,1043.76806641,24608.4454346,200.0,864.0,6978.41265869,8898.91439819
kurmuk,benishangul-gumuz,benishangul-gumuz,10.5543029304,34.4503206205,106.0,0.0,1610.40937948,1225.37276936,47095.7635498,14.2164537983,749.162506103,13642.4445114,200.0,391.0,566.666664124,1580.0
kutaber,amhara,south wolo,11.2755453366,39.4621667243,114.0,0.0,5934.27329254,835.257678986,13910.8015137,3.30719735527,749.162506103,34080.8579102,200.0,1387.0,12833.3334122,11269.3332825
kuyu,oromiya,north shoa,9.74325582512,38.3225680507,299.0,6.0,5203.79396057,2650.74122286,372107.757446,20.6528152161,1300.0,39603.5039062,259.180480957,1880.0,17583.3335571,15807.9086075
l/adiabo,tigray,tigray,14.3669967483,38.1982749571,94.0,0.0,1356.40237427,2487.9738245,412340.022339,17.3583666992,1689.68103027,51304.2050781,69.5015716553,1537.0,11819.9998779,11041.6666565
laelay maichew,tigray,tigray,14.0968593392,38.7548439813,91.0,0.0,1343.54158688,1512.82203376,29754.4775391,19.9553804321,1100.0,36485.1741943,214.406158447,1139.0,11330.7142334,12573.75
lagahida,somali,somali,8.05476203775,41.9934591613,10.0,0.0,576.064041138,46.2874507904,14350.9801255,0.674358978271,749.162506103,18915.9616089,200.0,78.0,4466.66665649,700.0
lalibela t,amhara,north wollo,12.031975,39.04732,106.0,0.0,1221.57896256,306.374052763,688.750320435,1.05,749.162506103,1827.94966125,200.0,272.0,1400.0,4700.0
lalo assabi,oromiya,west wollega,9.18306192858,35.6618330112,125.0,0.0,1129.93232203,243.261748075,23357.5629883,3.65305102158,1600.0,56124.1776123,184.347824097,760.0,12374.4442139,8201.03173828
lalo kile,oromiya,kellem,8.84822100648,35.3241092209,57.0,0.0,1041.175246,379.548325121,17831.2852783,3.73169372463,1696.25,22139.2274475,203.455459595,1054.0,11783.3334961,9466.42150879
lanfuro,snnpr,silte,7.74046368462,38.3798900965,190.0,3.0,84.1443407536,21.4204913825,820.621337891,0.0613219345659,102.892562866,2189.209095,170.061126709,1039.5,641.162628174,2330.47125626
lare,gambella,gambella,8.34019837106,33.9502740179,106.0,0.0,1007.14413285,564.888508797,2751.74127197,2.65765353584,749.162506103,2924.301651,200.0,400.0,633.333332062,3349.7618866
lasta,amhara,north wollo,12.0527181524,39.0125274373,106.0,0.0,12817.8572998,1297.20151138,59397.6341553,11.2699325256,749.162506103,19898.2869644,200.0,1563.0,17550.0,17070.0
lay armachiho,amhara,north gondar,12.7764950241,37.3646044803,106.0,0.0,2380.19802284,2060.54758915,238505.66748,30.3752225952,749.162506103,1950.70499003,200.0,1848.0,20625.0,16584.0552368
laygayint,amhara,south gondar,11.8462075268,38.4315109285,216.0,0.0,29001.9726868,5104.27728844,66739.581543,32.0676140747,551.667602539,52175.7290649,866.282287598,2367.0,6905.25422668,16275.4705505
legambo,amhara,south wolo,10.8496063087,39.1549927393,242.0,0.0,8665.47497559,2355.65270233,26163.6502686,6.60676856232,486.797027588,50808.3831787,740.70690918,2305.0,16770.4764404,20500.0
lege hidha,oromiya,bale,7.78221495297,41.3242001145,46.0,0.0,2232.87582207,386.382398248,16703.9743652,4.37679624939,1900.0,29788.5519409,300.0,1032.0,4766.66659546,12410.7545471
legehare,dire dawa,dire dawa,9.59858,41.8754,106.0,0.0,391.093283951,244.165597111,14350.9801255,0.65169981432,749.162506103,660.901947021,200.0,1627.0,550.0,13784.6153564
leghida,amhara,south wolo,10.7039852551,39.2849885983,85.0,0.0,2984.95110321,1638.67890811,11246.953125,4.50526779938,613.5,20704.8240891,192.204330444,1008.0,10541.666626,8780.0
leka dullacha,oromiya,east wolega,8.88333355404,36.4573861925,0.0,0.0,4482.79180527,1622.82799762,29398.7174072,14.9787492676,382.551269531,28563.7679443,200.0,919.0,6766.66662598,7580.00506592
lemo,snnpr,hadiya,7.53363560555,37.8478353045,404.0,0.0,616.300898314,499.28547895,6278.47070312,3.30760328484,243.888046265,18935.3830566,428.444107056,1039.5,6203.24255371,7200.0
liben,oromiya,east shewa,8.49432766095,38.8999669857,58.0,0.0,2176.67551231,1392.1329729,6877.80448401,17.0147428894,800.0,5922.73257256,200.0,1187.0,2837.5,10174.3421173
liben,oromiya,guji,5.10780028461,39.592124795,58.0,0.0,9973.84008789,11748.5789795,94813.27771,18.1864729004,500.0,26365.0832214,300.0,911.0,8213.0553894,10449.350647
libo kemkem,amhara,south gondar,12.1464560325,37.7806038418,363.0,0.0,3073.34905815,587.840003848,29320.401123,28.8910050049,2794.6652832,39121.8206787,842.217407227,2435.0,18939.394043,18025.0
lideta,addis ababa,addis ababa,9.01148114388,38.7298769636,236.0,0.0,185.274821877,73.2417029291,14350.9801255,1.62447854996,749.162506103,18915.9616089,280.346374512,1350.0,1066.66666412,4070.31590271
limmu,oromiya,east wolega,9.69895472905,36.4439644022,91.0,0.0,4486.13190269,910.917510688,63779.0078125,5.37290988922,740.225830078,37048.5100098,9963.1015625,966.0,4166.66665649,10530.0
limu kossaa,oromiya,jimma,8.05331072298,36.957046122,106.0,0.0,523.222534597,868.389962435,36191.5649414,14.0616608887,749.162506103,77705.1074219,200.0,2608.0,27748.2574463,53875.6299057
limu saqaa,oromiya,jimma,8.48124178882,36.9520190149,61.0,0.0,3830.68499756,1290.07957077,13840.2387695,10.3668276596,1879.01660156,36153.2263411,100.0,1228.0,14050.0,11751.0320969
lode hetosa,oromiya,arsi,8.09246987642,39.4168054139,106.0,0.0,2662.95646477,2468.90980244,2267.07989502,3.10676802421,749.162506103,20044.616394,200.0,1066.0,3783.33337402,8708.33334351
loka,snnpr,sidama,6.64661342324,38.1509925377,40.0,6.0,3255.62071419,1278.33771074,140624.481354,6.53330346298,1381.77746582,21113.4213257,259.887878418,1039.5,4091.86990356,6483.76145935
loma,snnpr,dawro,6.81345426317,37.1678345385,151.0,0.0,304.979376316,53.8756059334,6511.00811768,4.74022088242,102.480476379,13096.2291565,144.627799988,1039.5,2360.90944481,4488.05626678
lume,oromiya,east shewa,8.59822301975,39.1551440272,112.0,0.0,1030.42210913,561.786940217,96676.7373047,10.0398977489,1086.7824707,57638.2406006,172.739105225,1437.0,20295.6977539,14913.1136475
m/saint,amhara,south wolo,10.9309394258,38.6416838353,177.0,0.0,5577.63235092,1008.12542987,12372.7539062,2.63023181152,477.828430176,23882.8624268,500.0,1995.0,15300.0,15377.2108612
m/zana,tigray,tigray,14.0086059208,38.4453929413,171.0,0.0,2381.2481575,1280.65545273,139689.310547,24.5335894775,749.162506103,46911.3083496,230.280303955,1615.0,12464.9998169,14146.3889771
maareka,snnpr,dawro,7.03891439882,37.1383038232,261.0,4.0,37.1312833875,1089.43580249,4109.53918457,3.66319049454,400.0,9026.38613892,360.408294678,1039.5,4142.98452759,4460.0
machakel,amhara,east gojam,10.4775974954,37.5218831503,175.0,0.0,701.734090984,472.824237749,223183.659668,22.1605712891,2100.0,49955.2756348,335.059326172,1801.0,14933.3331909,17543.333313
maichew town,tigray,tigray,12.784327,39.542735,89.0,0.0,855.72980541,103.580303043,640.663757324,0.133099024296,749.162506103,700.0,193.695541382,567.0,1000.0,2400.0
maji,snnpr,bench maji,5.94268393793,35.6893971594,84.0,0.0,59.7174458951,24.3518984094,737.822158813,0.567572800159,132.049690247,668.354833603,200.0,1039.5,306.583868027,2527.27271271
malka soda,oromiya,borena,5.43771749087,38.5801429428,106.0,0.0,1091.13734961,182.834873617,6865.59777832,5.78699879456,749.162506103,21351.3519897,200.0,678.0,6175.00001526,8995.83330917
malle,snnpr,south omo,5.7541309143,36.8708999017,59.0,4.0,39.26842466,34.9615437835,329.756454468,0.667054397583,3771.01843262,1722.39383888,118.023269653,1039.5,327.925682068,2175.24910355
mandura,benishangul-gumuz,benishangul-gumuz,11.0148494641,36.2823003896,8.0,0.0,3809.5621047,1199.9776063,16443.3662109,26.341132019,749.162506103,26757.9562988,100.0,523.0,300.0,700.0
manna,oromiya,jimma,7.78986399459,36.7499749519,186.0,0.0,1715.57189286,1445.0724901,17513.6116943,7.54361056519,749.162506103,33753.9054108,200.0,1844.0,19500.0,20058.1321869
mao-komo,benishangul-gumuz,benishangul-gumuz,9.3515276859,34.2864525378,36.0,0.0,3221.48232841,2206.88876937,158531.29834,25.0056096191,1647.03259277,32533.3207245,200.0,509.0,4036.66659546,2280.0
mareko,snnpr,gurage,7.98529597347,38.5279598764,456.0,0.0,2733.23227501,950.956132144,5585.37969971,4.34224561882,700.0,15616.7010803,99.6530685425,1039.5,5310.28909302,2400.0
marsin,somali,somali,7.60723,44.9401,106.0,0.0,20.7317066193,75.2767035961,14350.9801255,0.0158266129494,749.162506103,18915.9616089,200.0,74.0,4466.66665649,600.0
marti,oromiya,arsi,8.55899471388,39.8786794898,106.0,0.0,6391.08403397,2772.92571592,1162.85119629,9.46806387329,749.162506103,12711.8378448,200.0,1459.0,1976.66665649,14800.0654678
masha wor,snnpr,sheka,7.73007973514,35.4684882945,146.0,0.0,478.610274978,113.627123475,21600.1002808,0.464550562382,749.162506103,31209.6384277,260.955513,1039.5,5334.99981689,7000.0
mecha,amhara,west gojam,11.3324466068,37.1583960339,366.0,0.0,1045.53001988,171.971461087,30984.0568848,19.9757650757,3395.2253418,52527.6986084,932.236816406,3957.0,31168.3326416,47327.6191406
mede walabu,oromiya,bale,5.77030560561,40.0353071116,92.0,0.0,6893.44268799,2027.1866188,10571.718338,1.97618091774,1789.3729248,21451.2008972,118.496902466,1200.0,7416.66656494,10802.5903854
megale,afar,afar,13.0229248342,40.0180348986,239.0,0.0,451.304351807,708.222226977,1011.14892578,2.46907343483,383.201202393,149.999994278,300.0,439.0,120.416664124,4422.22219849
meiso,somali,somali,9.64028136467,41.0154298869,106.0,0.0,906.914741516,576.017425537,210.0,18.3348369751,749.162506103,858.333328247,200.0,402.0,1833.33325195,2036.11109161
mekdela,amhara,south wolo,11.2423010698,38.9296587041,169.0,0.0,15880.5130005,2622.67820549,176524.005615,9.55848574066,1700.0,43827.03125,700.0,2082.0,19649.9998779,17583.333313
meket,amhara,north wollo,11.8199983046,38.8208430678,106.0,0.0,21393.3979492,5447.5551796,35500.2263184,27.8158029785,749.162506103,35869.5620422,200.0,2527.0,22424.9998779,19230.9090576
meko,oromiya,ilu ababor,8.74916535618,35.9844375109,26.0,0.0,0.0,0.0,320.0,1.51,749.162506103,1365.05828857,100.0,202.0,100.0,1100.0
mekoy,gambella,gambella,8.27435160999,33.6398029089,106.0,0.0,681.729324341,417.757588387,620.714294434,2.05737533569,749.162506103,798.652954102,200.0,113.0,200.0,833.333332062
melga,snnpr,sidama,6.9288290955,38.6386059,106.0,0.0,455.102324963,58.0884544849,3633.44400024,1.1780463419,749.162506103,6144.34765625,200.0,1039.5,1704.22221375,2783.00650787
melka bello,oromiya,east hararge,8.90673744393,41.3457985099,106.0,0.0,23674.9146423,1565.13917923,19360.4899902,0.147090488434,749.162506103,14714.2287025,200.0,532.0,6008.33332825,6166.66667175
melkajebdu,dire dawa,dire dawa,9.618889,41.784167,71.0,0.0,1994.4316802,463.636021435,11637.6217346,0.491129670382,555.643859863,10910.8464584,87.9380493164,292.0,3300.00001526,2348.2142868
melo koza,snnpr,gamo gofa,6.51470731731,36.6751730905,169.0,0.0,72.2658674717,66.1159837991,648.366249084,1.11620153522,31.2403632402,16149.8766174,4018.44074249,1039.5,749.169822693,2245.42538452
menesibu,oromiya,west wollega,9.74034679134,35.0071018598,198.0,0.0,1174.42094558,458.011098504,33472.8730469,38.2171806946,2700.0,89824.2861328,100.0,1437.0,5304.30110931,7791.9230957
menet goldia,snnpr,bench maji,6.78542639378,35.8773990801,30.0,0.0,133.679495454,50.9530754983,49133.5764771,1.42461910248,3182.66564941,2002.72761536,120.596675873,1039.5,1410.89201355,2515.77629089
menet shasha,snnpr,bench maji,6.48597464845,35.7064439165,81.0,0.0,300.392964721,16.7593935952,1323.4864502,1.19926900291,133.723907471,1668.49064636,200.0,1039.5,629.502639771,2004.84442902
menge,benishangul-gumuz,benishangul-gumuz,10.3233838117,34.8583317062,106.0,0.0,5505.4181385,4638.72067642,35410.1887207,23.0391312866,1055.92773438,32089.5653992,200.0,424.0,3549.99990845,4624.19911194
mengesh,gambella,gambella,7.42764686554,35.0843895414,50.0,0.0,2238.48529077,708.638938725,15038.796875,7.82654226685,104.697494507,6708.85614777,200.0,451.0,499.999988556,3938.33331299
